{"version": 0.6, "generator": "Overpass API 0.7.62.7 375dc00a", "osm3s": {"timestamp_osm_base": "2025-06-20T21:38:55Z", "copyright": "The data included in this document is from www.openstreetmap.org. The data is made available under ODbL."}, "elements": [{"type": "node", "id": 560504, "lat": 51.7312182, "lon": -1.2355172}, {"type": "node", "id": 7991864, "lat": 51.7576923, "lon": -1.2193711}, {"type": "node", "id": 16797065, "lat": 51.7516884, "lon": -1.2711691}, {"type": "node", "id": 16797132, "lat": 51.752077, "lon": -1.2740114}, {"type": "node", "id": 21509246, "lat": 51.7899669, "lon": -1.2647397, "tags": {"addr:city": "Oxford", "addr:country": "GB", "addr:housenumber": "3", "addr:postcode": "OX2 8NE", "addr:street": "Kendall Crescent", "amenity": "post_office", "fhrs:id": "932827", "name": "Oxford Convenience Store", "opening_hours:post_office": "Mo-Fr 09:00-17:30; Sa 09:00-12:30", "ref:pol_id": "2339", "shop": "convenience"}}, {"type": "node", "id": 26610006, "lat": 51.7838053, "lon": -1.2931619, "tags": {"addr:city": "Oxford", "addr:housenumber": "126", "addr:postcode": "OX2 8PQ", "addr:street": "Godstow Road", "amenity": "pub", "fhrs:id": "268655", "name": "The White Hart", "outdoor_seating": "yes", "source:addr": "FHRS Open Data", "wikidata": "Q26410012"}}, {"type": "node", "id": 82504127, "lat": 51.7466112, "lon": -1.2370233}, {"type": "node", "id": 82590776, "lat": 51.7428797, "lon": -1.2340918}, {"type": "node", "id": 82600307, "lat": 51.7584538, "lon": -1.2697348}, {"type": "node", "id": 82640612, "lat": 51.7448506, "lon": -1.2300988}, {"type": "node", "id": 156542830, "lat": 51.7550797, "lon": -1.2543214, "tags": {"addr:housenumber": "40", "addr:postcode": "OX1 3SP", "addr:street": "Holywell Street", "amenity": "pub", "brewery": "Young's", "check_date": "2025-02-09", "fhrs:id": "268754", "food": "yes", "name": "King's Arms", "opening_hours": "Mo-Su 10:30-00:00", "operator": "Young & Co.'s Brewery", "outdoor_seating": "yes", "phone": "+44 1865 242369", "real_ale": "yes", "toilets:wheelchair": "no", "website": "https://www.kingsarmsoxford.co.uk/", "wheelchair": "limited", "wikidata": "Q6410842"}}, {"type": "node", "id": 175012898, "lat": 51.7502905, "lon": -1.2426821}, {"type": "node", "id": 175023572, "lat": 51.7515363, "lon": -1.2556171}, {"type": "node", "id": 175683866, "lat": 51.7546015, "lon": -1.2556353, "tags": {"addr:city": "Oxford", "addr:housenumber": "52", "addr:postcode": "OX1 3BB", "addr:street": "Broad Street", "amenity": "pub", "cuisine": "fish_and_chips;pub_food", "fhrs:id": "1490144", "food": "yes", "name": "White Horse", "real_ale": "6 beers", "website": "http://www.whitehorseoxford.co.uk/", "wheelchair": "no", "wikidata": "Q26480787"}}, {"type": "node", "id": 175694097, "lat": 51.7500593, "lon": -1.2426614}, {"type": "node", "id": 175694121, "lat": 51.7493247, "lon": -1.2383207}, {"type": "node", "id": 175707015, "lat": 51.7470562, "lon": -1.2349277, "tags": {"addr:housenumber": "182", "addr:postcode": "OX4 1UE", "addr:street": "Cowley Road", "amenity": "pub", "fhrs:id": "268529", "name": "The Library", "old_name": "The Brickworks", "website": "https://thelibrarypuboxford.com/", "wheelchair": "no"}}, {"type": "node", "id": 175707029, "lat": 51.7385138, "lon": -1.2177711}, {"type": "node", "id": 175707113, "lat": 51.732299, "lon": -1.2176127, "tags": {"addr:city": "Oxford", "addr:housenumber": "59a", "addr:postcode": "OX4 3LR", "addr:street": "Between Towns Road", "amenity": "pub", "brand": "Wetherspoon", "brand:wikidata": "Q6109362", "brand:wikipedia": "en:Wetherspoons", "fhrs:id": "268414", "name": "William Morris", "website": "https://www.jdwetherspoon.com/pubs/all-pubs/england/oxfordshire/the-william-morris-oxford", "wikidata": "Q88917757"}}, {"type": "node", "id": 175707119, "lat": 51.7285342, "lon": -1.2184486}, {"type": "node", "id": 212955601, "lat": 51.7534024, "lon": -1.2591696, "tags": {"addr:city": "Oxford", "addr:housenumber": "3A", "addr:postcode": "OX1 2DR", "addr:street": "St Michael's Street", "amenity": "pub", "check_date": "2024-04-21", "dailyinfo:venue_id": "473", "fhrs:id": "269382", "food": "yes", "name": "Three Goats Heads", "operator": "Sam Smiths", "source:addr": "FHRS Open Data", "wheelchair": "no"}}, {"type": "node", "id": 223405735, "lat": 51.753788, "lon": -1.2292137}, {"type": "node", "id": 231412328, "lat": 51.753617, "lon": -1.2603506, "tags": {"addr:city": "Oxford", "addr:housenumber": "29-31", "addr:postcode": "OX1 2AY", "addr:street": "George Street", "amenity": "fast_food", "brand": "Gourmet Burger Kitchen", "brand:wikidata": "Q5588445", "brand:wikipedia": "en:Gourmet Burger Kitchen", "contact:website": "https://restaurants.gbk.co.uk/oxford/oxford", "cuisine": "burger", "diet:vegan": "limited", "diet:vegetarian": "yes", "fhrs:id": "1296977", "level": "0", "name": "Gourmet Burger Kitchen", "opening_hours": "Mo-Sa 11:30-23:00; Su 12:00-22:00", "operator": "Gourmet Burger Kitchen", "short_name": "GBK", "takeaway": "yes", "wheelchair": "no"}}, {"type": "node", "id": 231413379, "lat": 51.7543112, "lon": -1.2614509, "tags": {"addr:city": "Oxford", "addr:housenumber": "100-101", "addr:postcode": "OX1 2DF", "addr:street": "Gloucester Green", "amenity": "restaurant", "breakfast": "no", "check_date": "2025-06-15", "contact:facebook": "https://www.facebook.com/100percent.pasta/", "contact:instagram": "https://www.instagram.com/100percent.pasta/", "contact:tiktok": "https://www.tiktok.com/@100percent.pasta", "contact:tripadvisor": "https://www.tripadvisor.com/Restaurant_Review-g186361-d27731314-Reviews-100_Pasta-Oxford_Oxfordshire_England.html", "cuisine": "pasta;italian", "delivery": "yes", "description": "The restaurant is closed on Christmas Eve, Christmas Day, New Year\u2019s Eve and New Year\u2019s Day. There is an opportunity to join a newsletter. There is also an option of 100% pasta experience -try 4 different italian pasta", "diet:gluten_free": "yes", "diet:vegan": "yes", "diet:vegetarian": "yes", "dinner": "no", "drink:beer": "yes", "drink:coffee": "yes", "drink:soft_drink": "yes", "drink:sparkling_wine": "yes", "drink:tea": "yes", "drink:wine": "yes", "email": "oxford@100percentpasta.com", "fhrs:id": "1726790", "level": "0", "lunch": "menu", "lunch:menu": "Mo-Fr 12:00-16:00", "name": "100% Pasta", "old_name": "Kaspa's", "opening_hours": "Mo-Su 12:00-22:00", "opening_hours:url": "https://www.100percentpasta.com/contact/", "phone": "+44 1865 602302", "reservation": "yes", "reservation:website": "https://100pasta.touchreservation.net/reservation", "takeaway": "no", "website": "https://www.100percentpasta.com/", "website:menu": "https://www.100percentpasta.com/wp-content/uploads/2025/04/100percent-pasta-menu.pdf", "wheelchair": "yes"}}, {"type": "node", "id": 249151792, "lat": 51.7270574, "lon": -1.1950243, "tags": {"addr:country": "GB", "addr:postcode": "OX4 6NF", "addr:street": "Watlington Road", "brand": "Lidl", "brand:wikidata": "Q151954", "brand:wikipedia": "en:Lidl", "fhrs:id": "1215459", "name": "Lidl", "shop": "supermarket", "website": "https://www.lidl.co.uk/s/en-GB/store-finder/oxford/oxfordshire/watlington-road/"}}, {"type": "node", "id": 251232416, "lat": 51.7545076, "lon": -1.2624617, "tags": {"addr:city": "Oxford", "addr:housename": "The Old School", "addr:postcode": "OX1 2DF", "addr:street": "Gloucester Green", "amenity": "restaurant", "branch": "Oxford", "brand": "Sichuan Grand", "breakfast": "no", "check_date": "2025-06-15", "contact:facebook": "https://www.facebook.com/Sichuangrandlondon/", "contact:instagram": "https://www.instagram.com/sichuangrand/?hl=en", "contact:tripadvisor": "https://www.tripadvisor.com/Restaurant_Review-g186361-d2646840-Reviews-or90-Sichuan_Grand-Oxford_Oxfordshire_England.html", "cuisine": "chinese", "delivery": "yes", "diet:vegetarian": "yes", "dinner": "no", "email": "sichuangrandholborninfo@gmail.com", "fhrs:id": "1292329", "lunch": "no", "name": "Sichuan Grand", "opening_hours": "Mo-Su 11:30-22:30", "opening_hours:url": "https://www.tripadvisor.co.uk/Restaurant_Review-g186361-d2646840-Reviews-Sichuan_Grand-Oxford_Oxfordshire_England.html", "phone": "+44 1865 791222", "reservation": "yes", "reservation:website": "http://sichuangrand.com/oxford", "takeaway": "no", "website": "http://sichuangrand.com/", "website:menu": "http://sichuangrand.com/menu"}}, {"type": "node", "id": 251606360, "lat": 51.7425374, "lon": -1.2349086, "tags": {"addr:housenumber": "39", "addr:postcode": "OX4 3DH", "addr:street": "Magdalen Road", "amenity": "cafe", "diet:vegan": "yes", "diet:vegetarian": "only", "disused:name": "Hyper Ramen", "fhrs:id": "1700662", "indoor_seating": "yes", "name": "Green Routes", "opening_hours": "Mo-Fr 08:00-16:00; Sa,Su 09:00-16:00", "outdoor_seating": "yes", "source": "Bing;osm_gps_points", "website": "https://www.greenroutes.co.uk/"}}, {"type": "node", "id": 251606371, "lat": 51.7413688, "lon": -1.2300695, "tags": {"addr:housenumber": "147-151", "addr:postcode": "OX4 3AZ", "addr:street": "Howard Street", "amenity": "pub", "name": "Donnington Arms", "phone": "+44 1865 47342"}}, {"type": "node", "id": 253265510, "lat": 51.7276786, "lon": -1.2002981, "tags": {"brand": "M&S Simply Food", "brand:wikidata": "Q714491", "brand:wikipedia": "en:Marks & Spencer", "check_date": "2024-07-21", "check_date:opening_hours": "2024-07-21", "contact:website": "https://www.marksandspencer.com/stores/oxford-cowley-road-simply-food-9996", "name": "M&S Simply Food", "opening_hours": "Mo-Sa 08:00-20:00; Su 10:30-16:30", "shop": "supermarket"}}, {"type": "node", "id": 255629368, "lat": 51.7174232, "lon": -1.1969647, "tags": {"addr:city": "Oxford", "addr:postcode": "OX4 7EX", "addr:street": "Dunnock Way", "addr:unit": "2", "amenity": "restaurant", "breakfast": "no", "check_date": "2025-06-15", "contact:facebook": "https://www.facebook.com/pages/Chillies%20Indian%20Takeaway/1697586057167832/", "contact:tripadvisor": "https://www.tripadvisor.co.uk/Restaurant_Review-g186361-d8618838-Reviews-Chillies_Indian_Takeaway-Oxford_Oxfordshire_England.html", "cuisine": "indian", "delivery": "yes", "diet:vegetarian": "yes", "dinner": "no", "drink:cola": "yes", "fhrs:id": "268782", "lunch": "no", "name": "Chillies Indian Takeaway", "opening_hours": "Mo-Su 17:00-23:00", "opening_hours:url": "https://chilliesindianoxford.co.uk/#contact", "phone": "+44 1865 775849", "reservation": "no", "source": "photograph", "takeaway": "yes", "website": "https://chilliesindianoxford.co.uk/", "website:menu": "https://chilliesindianoxford.co.uk/#menu"}}, {"type": "node", "id": 256611698, "lat": 51.7283672, "lon": -1.2021921, "tags": {"amenity": "fast_food", "brand": "Burger King", "brand:wikidata": "Q177054", "brand:wikipedia": "en:Burger King", "contact:website": "https://locations.burgerking.co.uk/oxford/cowley-retail-park", "cuisine": "burger", "fhrs:id": "269549", "name": "Burger King", "source": "local_knowledge", "takeaway": "yes"}}, {"type": "node", "id": 256628775, "lat": 51.7245792, "lon": -1.1989314, "tags": {"brand": "Best-one", "brand:wikidata": "Q4896532", "contact:website": "https://stores.best-one.co.uk/best-one-e047c533a573", "fhrs:id": "268350", "name": "Best-one", "shop": "convenience", "source": "local_knowledge"}}, {"type": "node", "id": 257957827, "lat": 51.7626136, "lon": -1.1949038}, {"type": "node", "id": 257957828, "lat": 51.7626396, "lon": -1.1952429}, {"type": "node", "id": 258724789, "lat": 51.7724411, "lon": -1.2362194}, {"type": "node", "id": 258870938, "lat": 51.7174706, "lon": -1.1972626}, {"type": "node", "id": 259084607, "lat": 51.7603499, "lon": -1.2079614}, {"type": "node", "id": 259190443, "lat": 51.7534515, "lon": -1.2633304, "tags": {"addr:city": "Oxford", "addr:housenumber": "77-79", "addr:postcode": "OX1 2BQ", "addr:street": "George Street", "amenity": "restaurant", "branch": "Oxford - George Street", "brand": "Nando's", "brand:wikidata": "Q3472954", "brand:wikipedia": "en:Nando's", "changing_table": "yes", "check_date": "2025-06-15", "contact:facebook": "https://www.facebook.com/Nandos.UnitedKingdom", "contact:instagram": "https://www.instagram.com/nandosuk/", "contact:tripadvisor": "https://www.tripadvisor.co.uk/Restaurant_Review-g186361-d2001534-Reviews-Nando_s_Oxford_George_Street-Oxford_Oxfordshire_England.html", "contact:twitter": "https://x.com/NandosUK", "contact:youtube": "https://www.youtube.com/channel/UCVgYYZS_7RE-Hh9dFVMo8Rw", "cuisine": "chicken;portuguese", "delivery": "yes", "diet:vegan": "yes", "diet:vegetarian": "yes", "drink:beer": "yes", "drink:cola": "yes", "drink:soft_drink": "yes", "drink:tea": "yes", "drink:wine": "yes", "email": "hello@nandos.co.uk", "fhrs:id": "269026", "internet_access": "yes", "name": "Nando's", "opening_hours": "Mo-Fr,Su 11:00-22:00; Sa 10:00-22:00", "opening_hours:url": "https://www.nandos.co.uk/restaurants/oxford-george-street", "phone": "+44 1865 727465", "reservation": "no", "takeaway": "yes", "website": "https://www.nandos.co.uk/restaurants/oxford-george-street", "website:menu": "https://www.nandos.co.uk/food/menu/", "wheelchair": "no"}}, {"type": "node", "id": 259569420, "lat": 51.749066, "lon": -1.2391844}, {"type": "node", "id": 259729053, "lat": 51.7470095, "lon": -1.2405449}, {"type": "node", "id": 262344592, "lat": 51.7537486, "lon": -1.2595821, "tags": {"addr:city": "Oxford", "addr:housenumber": "7", "addr:postcode": "OX1 2AT", "addr:street": "George Street", "amenity": "pub", "dailyinfo:venue_id": "462", "fhrs:id": "1656362", "name": "The Grapes"}}, {"type": "node", "id": 263027773, "lat": 51.733508, "lon": -1.2186508}, {"type": "node", "id": 263027784, "lat": 51.732786, "lon": -1.2190614}, {"type": "node", "id": 263027785, "lat": 51.7335466, "lon": -1.2186718}, {"type": "node", "id": 263027786, "lat": 51.733396, "lon": -1.2193945}, {"type": "node", "id": 265644992, "lat": 51.7220096, "lon": -1.2213461, "tags": {"amenity": "pub", "fhrs:id": "1042851", "name": "Golden Ball", "source": "photograph"}}, {"type": "node", "id": 266167247, "lat": 51.7427461, "lon": -1.2339202, "tags": {"addr:city": "Oxford", "addr:housenumber": "110", "addr:postcode": "OX4 1RQ", "addr:street": "Magdalen Road", "amenity": "cafe", "diet:vegan": "yes", "diet:vegetarian": "only", "fhrs:id": "1635455", "name": "The Magic Cafe", "opening_hours": "Mo-Fr 10:00-17:00; Sa 10:00-16:00; Su off", "wheelchair": "yes"}}, {"type": "node", "id": 266708484, "lat": 51.7782497, "lon": -1.2655509, "tags": {"addr:city": "Oxford", "addr:housename": "Suffolk House", "addr:housenumber": "263-265", "addr:postcode": "OX2 7HN", "addr:street": "Banbury Road", "addr:unit": "Unit 5", "brand": "Tesco Express", "brand:wikidata": "Q98456772", "contact:website": "https://www.tesco.com/store-locator/oxford/263-banbury-rd", "fhrs:id": "268375", "name": "Tesco Express", "opening_hours": "Mo-Su 06:00-11:00", "shop": "supermarket", "source": "photograph;local_knowledge", "source:addr": "FHRS Open Data", "wheelchair": "yes"}}, {"type": "node", "id": 266719977, "lat": 51.7474161, "lon": -1.2373178}, {"type": "node", "id": 268664188, "lat": 51.764704, "lon": -1.2616813, "tags": {"addr:city": "Oxford", "addr:housenumber": "14", "addr:postcode": "OX2 6LX", "addr:street": "North Parade Avenue", "amenity": "pub", "check_date": "2023-07-30", "fhrs:id": "269099", "name": "The Rose And Crown", "opening_hours": "11:00+", "smoking": "no", "source": "photograph"}}, {"type": "node", "id": 268664190, "lat": 51.7645044, "lon": -1.2620572, "tags": {"addr:city": "Oxford", "addr:housenumber": "8", "addr:postcode": "OX2 6LX", "addr:street": "North Parade Avenue", "amenity": "pub", "check_date": "2023-07-30", "fhrs:id": "1693340", "name": "Gardeners Arms", "note": "Not to be confused with the Plantation Road one, to the WSW of here.", "source": "photograph", "source:addr": "FHRS Open Data"}}, {"type": "node", "id": 277592719, "lat": 51.74904, "lon": -1.2394626}, {"type": "node", "id": 278836691, "lat": 51.7483922, "lon": -1.2425455, "tags": {"addr:housenumber": "43", "addr:postcode": "OX4 1EA", "addr:street": "Iffley Road", "amenity": "pub", "fhrs:id": "974649", "name": "The Mad Hatter", "old_name": "Cricketers Arms"}}, {"type": "node", "id": 279404713, "lat": 51.74384, "lon": -1.2561799, "tags": {"addr:city": "Oxford", "addr:housenumber": "38", "addr:postcode": "OX1 4PD", "addr:street": "Abingdon Road", "amenity": "pub", "fhrs:id": "1751071", "food": "yes", "name": "The Slow & Steady", "old_name": "The White House", "operator": "The Dodo Pub Company", "outdoor_seating": "yes", "real_ale": "yes"}}, {"type": "node", "id": 295953656, "lat": 51.75174, "lon": -1.256298, "tags": {"addr:city": "Oxford", "addr:housenumber": "129", "addr:postcode": "OX1 4DF", "addr:street": "High Street", "amenity": "pub", "fhrs:id": "268734", "name": "The Wheatsheaf", "outdoor_seating": "no", "phone": "+44 1865 721156", "source": "gps_survey", "toilets:wheelchair": "no", "wheelchair": "limited"}}, {"type": "node", "id": 295953657, "lat": 51.7514837, "lon": -1.2561956, "tags": {"addr:postcode": "OX1 4EE", "addr:street": "Blue Boar Street", "amenity": "bar", "bar": "cocktail_bar", "fhrs:id": "268784", "name": "House Bar", "source": "gps_survey", "website": "https://www.housebar.co.uk/"}}, {"type": "node", "id": 302010371, "lat": 51.7470359, "lon": -1.2357007}, {"type": "node", "id": 302010577, "lat": 51.7473899, "lon": -1.2359377, "tags": {"addr:city": "Oxford", "addr:housenumber": "162", "addr:postcode": "OX4 1UE", "addr:street": "Cowley Road", "amenity": "pub", "name": "The Bullingdon", "phone": "+44 1865 244516"}}, {"type": "node", "id": 302831171, "lat": 51.7218381, "lon": -1.2333801}, {"type": "node", "id": 302831172, "lat": 51.7215338, "lon": -1.233244}, {"type": "node", "id": 302831173, "lat": 51.7216119, "lon": -1.2327168}, {"type": "node", "id": 302831174, "lat": 51.7212472, "lon": -1.2325582}, {"type": "node", "id": 302831175, "lat": 51.7213536, "lon": -1.2319361}, {"type": "node", "id": 302831177, "lat": 51.7213192, "lon": -1.2319234}, {"type": "node", "id": 302831184, "lat": 51.7219728, "lon": -1.2330453}, {"type": "node", "id": 302831185, "lat": 51.7218934, "lon": -1.233021}, {"type": "node", "id": 303552167, "lat": 51.7465431, "lon": -1.2562719}, {"type": "node", "id": 303552169, "lat": 51.7465671, "lon": -1.2560255}, {"type": "node", "id": 303552170, "lat": 51.7465512, "lon": -1.2560233}, {"type": "node", "id": 306285555, "lat": 51.7508932, "lon": -1.2572754, "tags": {"addr:city": "Oxford", "addr:housenumber": "101", "addr:postcode": "OX1 1BT", "addr:street": "St Aldate's", "amenity": "pub", "brewery": "yes", "cuisine": "thai", "diet:vegetarian": "yes", "email": "info@oldtomoxford.com", "fhrs:id": "269312", "name": "Old Tom", "opening_hours": "Mo-Su 12:00-23:00", "opening_hours:kitchen": "Mo-Su 12:00-14:45,17:00-21:45", "opening_hours:url": "https://www.oldtomoxford.com/location", "phone": "+44 1865 243034", "reservation": "yes", "source": "gps_survey;yahoo_imagery", "website": "https://www.oldtomoxford.com/", "website:menu": "https://www.oldtomoxford.com/menu-2"}}, {"type": "node", "id": 306512403, "lat": 51.7480946, "lon": -1.2747842, "tags": {"amenity": "fast_food", "cuisine": "burger", "delivery": "no", "drive_through": "no", "fhrs:id": "269123", "name": "Zoe's Food Services", "takeaway": "only"}}, {"type": "node", "id": 308833448, "lat": 51.7416405, "lon": -1.2406271, "tags": {"addr:housenumber": "19", "addr:postcode": "OX4 1SN", "addr:street": "Chester Street", "amenity": "pub", "fhrs:id": "841952", "name": "The Chester Arms", "opening_hours": "Tu-Th 16:00-23:00; Mo 12:00-23:00; Su 12:00-22:00; Fr,Sa 12:00-23:00", "outdoor_seating": "yes", "website": "http://www.thechesterarmsoxford.co.uk/"}}, {"type": "node", "id": 310414293, "lat": 51.7413356, "lon": -1.2363782}, {"type": "node", "id": 312915804, "lat": 51.7544669, "lon": -1.2592052, "tags": {"addr:postcode": "OX1 3AD", "addr:street": "Magdalen Street", "brand": "Tesco Express", "brand:wikidata": "Q98456772", "contact:website": "https://www.tesco.com/store-locator/oxford/magdalen-st", "fhrs:id": "269253", "name": "Tesco Express", "not:shop": "convenience", "opening_hours": "Mo-Sa 07:00-24:00; Su 11:00-17:00", "phone": "+44 845 0269682", "shop": "supermarket", "wheelchair": "limited"}}, {"type": "node", "id": 312915805, "lat": 51.7542945, "lon": -1.2591266, "tags": {"addr:housenumber": "7", "addr:postcode": "OX1 3AD", "addr:street": "Magdalen Street", "brand": "Sainsbury's Local", "brand:wikidata": "Q13218434", "brand:wikipedia": "en:Sainsbury's Local", "check_date": "2025-02-09", "fhrs:id": "395979", "name": "Sainsbury's Local", "opening_hours": "Mo-Su 07:00-22:00", "shop": "convenience", "website": "https://stores.sainsburys.co.uk/4049/northgate-local", "wheelchair": "yes"}}, {"type": "node", "id": 312915806, "lat": 51.7540882, "lon": -1.2564826, "tags": {"addr:city": "Oxford", "addr:housenumber": "21", "addr:postcode": "OX1 3DH", "addr:street": "Turl Street", "amenity": "cafe", "check_date": "2024-04-18", "diet:vegan": "yes", "fhrs:id": "1426972", "indoor_seating": "yes", "name": "Knoops", "outdoor_seating": "yes", "payment:credit_cards": "yes", "payment:debit_cards": "yes", "takeaway": "yes", "toilets": "no", "website": "https://knoops.co.uk/pages/location-page-oxford", "wheelchair": "limited"}}, {"type": "node", "id": 313026966, "lat": 51.7557484, "lon": -1.2590687, "tags": {"amenity": "fast_food", "check_date": "2024-04-18", "fhrs:id": "268577", "name": "Najar's Place", "opening_hours": "Mo-Su 07:00-21:00", "wheelchair": "limited"}}, {"type": "node", "id": 313066974, "lat": 51.7544039, "lon": -1.2601659, "tags": {"addr:city": "Oxford", "addr:housenumber": "11-12 Friars Entry", "addr:postcode": "OX1 2BY", "addr:street": "Magdalen Street", "amenity": "restaurant", "branch": "Oxford", "brand": "Turtle Bay", "brand:wikidata": "Q127601863", "brand:wikipedia": "https://en.wikipedia.org/wiki/Turtle_Bay_(restaurant)", "breakfast": "no", "check_date": "2025-06-15", "contact:facebook": "https://www.facebook.com/TurtleBayRestaurants", "contact:instagram": "https://www.instagram.com/turtlebayuk/", "contact:linkedin": "https://www.linkedin.com/company/turtle-bays-restaurants/", "contact:tiktok": "https://www.tiktok.com/@turtlebayuk", "contact:youtube": "https://www.youtube.com/user/TurtleBay2012", "cuisine": "caribbean", "delivery": "yes", "description": "There is an opportunity to join a newsletter. There is also an option of Bottomless Brunch. There are also HappyHour every day and Late Night Beats & Eats", "diet:vegan": "yes", "diet:vegetarian": "yes", "dinner": "no", "drink:beer": "yes", "drink:soft_drink": "yes", "drink:sparkling_wine": "yes", "drink:wine": "yes", "email": "feedback@turtlebay.co.uk", "fhrs:id": "836585", "internet_access": "yes", "lunch": "no", "name": "Turtle Bay", "opening_hours": "Mo-We 11:00-22:30; Th 11:00-23:00; Fr 11:00-24:00; Sa 10:00-24:00; Su 11:00-22:00", "opening_hours:url": "https://turtlebay.co.uk/restaurants/oxford", "outdoor_seating": "yes", "phone": "+44 1865 242141", "reservation": "yes", "reservation:website": "https://turtlebay.co.uk/restaurants/oxford", "takeaway": "yes", "website": "https://turtlebay.co.uk/restaurants/oxford", "website:menu": "https://turtlebay.co.uk/menu/?location=oxford", "wheelchair": "yes"}}, {"type": "node", "id": 314413924, "lat": 51.7507753, "lon": -1.2593443, "tags": {"addr:city": "Oxford", "addr:housenumber": "13", "addr:postcode": "OX1 1PT", "addr:street": "St Ebbes Street", "amenity": "pub", "fhrs:id": "988122", "food": "yes", "name": "Royal Blenheim", "note": "some services like kitchen and sundy alchol times are are subset see website for details. Site currently has sewing and quiz nights according to the website.", "opening_hours": "Mo-Tu 12:00-23:00; We-Th 12:00-23:30; Fr-Sa 11:30-24:00; Su 11:30-22:00", "operator": "White Horse Brewery", "real_ale": "yes", "toilets:wheelchair": "yes", "website": "http://www.royalblenheim.co.uk/", "website:operator": "http://www.breweryoxfordshire.co.uk/", "wheelchair": "limited"}}, {"type": "node", "id": 315901685, "lat": 51.7522826, "lon": -1.2760978, "tags": {"addr:city": "Oxford", "addr:housenumber": "25", "addr:postcode": "OX2 0BN", "addr:street": "Botley Road", "amenity": "fast_food", "cuisine": "indian", "delivery": "yes", "fhrs:id": "723651", "name": "Currydor", "opening_hours": "Mo-Th 18:00-22:00, Fr,Sa 18:00-22:30, Tu-Sa 12:00-14:00", "phone": "+44 1865 424343", "takeaway": "yes"}}, {"type": "node", "id": 319253505, "lat": 51.7511201, "lon": -1.2616715, "tags": {"addr:city": "Oxford", "addr:county": "Oxfordshire", "addr:postcode": "OX1 1AY", "addr:street": "Castle Street", "address1": "Castle Street", "amenity": "pub", "brand": "Wetherspoon", "brand:wikidata": "Q6109362", "brand:wikipedia": "en:Wetherspoons", "contact:phone": "01865 260690", "contact:website": "https://www.jdwetherspoon.com/pubs/all-pubs/england/oxfordshire/the-swan--castle-oxford", "diet:vegan": "yes", "diet:vegetarian": "yes", "dog": "no", "fhrs:id": "269229", "food": "yes", "name": "The Swan & Castle", "note": "Has TV screens", "opening_hours": "Mo-Th 08:00-24:00; Fr-Sa 08:00-01:00; Su 08:00-12:00", "outdoor_seating": "yes", "payment:debit_cards": "yes", "payment:mastercard": "yes", "payment:visa": "yes", "real_ale": "yes", "source:addr": "FHRS Open Data", "toilets": "yes", "toilets:access": "customers", "wheelchair": "yes", "wikidata": "Q88917761"}}, {"type": "node", "id": 320608422, "lat": 51.7518141, "lon": -1.2633443, "tags": {"addr:housenumber": "45", "addr:postcode": "OX1 1AY", "addr:street": "Oxford Castle, New Road", "amenity": "cafe", "name": "Castleyard Caf\u00e9", "old_name": "Caf\u00e9 1071"}}, {"type": "node", "id": 320608425, "lat": 51.7523678, "lon": -1.2600295, "tags": {"addr:city": "Oxford", "addr:housenumber": "22", "addr:postcode": "OX1 2DW", "addr:street": "New Inn Hall Street", "amenity": "cafe", "cuisine": "bakery;asian", "fhrs:id": "1292337", "name": "Dore Dore Bakery and Cafe"}}, {"type": "node", "id": 320608426, "lat": 51.7535411, "lon": -1.2610652, "tags": {"addr:city": "Oxford", "addr:housenumber": "35", "addr:postcode": "OX1 2DH", "addr:street": "New Inn Hall Street", "amenity": "cafe", "check_date": "2024-04-21", "cuisine": "coffee_shop", "diet:vegan": "limited", "diet:vegetarian": "yes", "fhrs:id": "854391", "internet_access": "wlan", "name": "George Street Social", "note": "Coffee, Tea, Breakfast , Afternoon Tea", "old_name": "Java&Co Independent Coffee Shop", "opening_hours": "Mo-Fr 07:00 - 23:00, Sa 09:00-23:00, Su 09:00-23:00", "phone": "+44 1865 204735", "smoking": "no", "website": "https://www.georgestreetsocial.com/", "wheelchair": "limited"}}, {"type": "node", "id": 320608434, "lat": 51.7550003, "lon": -1.2510659, "tags": {"addr:city": "Oxford", "addr:housenumber": "15", "addr:postcode": "OX1 3SA", "addr:street": "Holywell Street", "alt_name": "Edamame", "amenity": "restaurant", "breakfast": "no", "check_date": "2025-06-15", "contact:tripadvisor": "https://www.tripadvisor.co.uk/Restaurant_Review-g186361-d733780-Reviews-Edamame-Oxford_Oxfordshire_England.html", "contact:twitter": "https://x.com/edamameoxford", "cuisine": "japanese;sushi", "delivery": "no", "description": "Sushi menu Th 17:00-20:30", "diet:gluten_free": "yes", "diet:vegan": "yes", "diet:vegetarian": "yes", "dinner": "Fr-Sa 17:00-20:30", "drink:beer": "yes", "drink:cola": "yes", "drink:soft_drink": "yes", "drink:wine": "yes", "fhrs:id": "268751", "lunch": "We-Sa 11:30-14:30;Su 12:00-15:30", "name": "Edamam\u00e9", "opening_hours": "We 11:30-14:30; Th-Sa 11:30-14:30,17:00-20:30; Su 12:00-15:30", "opening_hours:url": "https://www.edamame.co.uk/", "payment:cash": "yes", "payment:credit_cards": "yes", "payment:debit_cards": "yes", "phone": "+44 1865 246916", "reservation": "no", "takeaway": "yes", "website": "https://www.edamame.co.uk/", "website:menu": "https://www.edamame.co.uk/our-menus"}}, {"type": "node", "id": 320648765, "lat": 51.7521347, "lon": -1.262214, "tags": {"addr:city": "Oxford", "addr:housename": "Oxford Castle", "addr:postcode": "OX1 1AY", "addr:street": "New Road", "addr:unit": "1", "amenity": "bar", "brand": "Slug and Lettuce", "brand:wikidata": "Q7542224", "check_date": "2025-02-10", "cocktails": "yes", "fhrs:id": "1775581", "food": "yes", "name": "Slug and Lettuce", "operator": "Stonegate", "operator:wikidata": "Q7619176", "source:addr": "FHRS Open Data", "website": "https://www.slugandlettuce.co.uk/oxford"}}, {"type": "node", "id": 322572592, "lat": 51.7340169, "lon": -1.2497771}, {"type": "node", "id": 322720971, "lat": 51.7495155, "lon": -1.242737, "tags": {"addr:housenumber": "25-27", "addr:postcode": "OX4 1HP", "addr:street": "Cowley Road", "amenity": "bar", "check_date": "2024-06-25", "fhrs:id": "268500", "food": "yes", "name": "Kazbar", "phone": "+44 1865 202920", "website": "http://www.kazbar.co.uk"}}, {"type": "node", "id": 322720972, "lat": 51.749833, "lon": -1.243561, "tags": {"addr:housenumber": "3-5", "addr:postcode": "OX4 1HP", "addr:street": "Cowley Road", "amenity": "cafe", "fhrs:id": "268497", "name": "Tick Tock Cafe", "opening_hours": "Mo-Sa 08:00-21:00; Su 08:00-18:00", "phone": "+44 1865 200777"}}, {"type": "node", "id": 322721066, "lat": 51.7471877, "lon": -1.2345527, "tags": {"addr:city": "Oxford", "addr:housenumber": "187-189", "addr:postcode": "OX4 1UT", "addr:street": "Cowley Road", "alt_name": "Red Star Noodle Bar", "amenity": "restaurant", "breakfast": "no", "check_date": "2025-06-15", "contact:facebook": "https://www.facebook.com/pages/Red%20Star%20Noodle%20Bar/625017284252520/", "contact:tripadvisor": "https://www.tripadvisor.co.uk/Restaurant_Review-g186361-d787839-Reviews-Red_Star_Noodle_Bar-Oxford_Oxfordshire_England.html", "contact:yelp": "https://www.yelp.co.uk/biz/red-star-noodle-bar-oxford", "cuisine": "asian;chinese;noodle", "delivery": "yes", "diet:vegetarian": "yes", "dinner": "no", "email": "info@redstaroxford.co.uk", "fhrs:id": "1548707", "lunch": "no", "name": "Red Star Chinese Restaurant", "opening_hours": "Mo-Su 12:00-23:00", "opening_hours:url": "https://redstaroxford.co.uk/contact-en/", "phone": "+44 1865 251248", "reservation": "yes", "takeaway": "yes", "website": "https://redstaroxford.co.uk/", "website:menu": "https://redstaroxford.co.uk/menu-in-english/"}}, {"type": "node", "id": 322721238, "lat": 51.7487156, "lon": -1.2404246, "tags": {"addr:city": "Oxford", "addr:housenumber": "80", "addr:postcode": "OX4 1JB", "addr:street": "Cowley Road", "amenity": "restaurant", "branch": "Oxford - Cowley Road", "brand": "Nando's", "brand:wikidata": "Q3472954", "brand:wikipedia": "en:Nando's", "breakfast": "no", "changing_table": "yes", "check_date": "2025-06-15", "contact:facebook": "https://www.facebook.com/Nandos.UnitedKingdom", "contact:instagram": "https://www.instagram.com/nandosuk/", "contact:tripadvisor": "https://www.tripadvisor.co.uk/Restaurant_Review-g186361-d1010901-Reviews-Nando_s_Oxford_Cowley_Road-Oxford_Oxfordshire_England.html", "contact:twitter": "https://x.com/NandosUK", "contact:youtube": "https://www.youtube.com/channel/UCVgYYZS_7RE-Hh9dFVMo8Rw", "cuisine": "chicken;portuguese", "delivery": "yes", "diet:halal": "yes", "diet:vegan": "yes", "diet:vegetarian": "yes", "dinner": "no", "drink:beer": "yes", "drink:cola": "yes", "drink:soft_drink": "yes", "drink:tea": "yes", "drink:wine": "yes", "email": "hello@nandos.co.uk", "fhrs:id": "268508", "internet_access": "yes", "lunch": "no", "name": "Nando's", "opening_hours": "Mo-Su 11:00-22:00", "opening_hours:url": "https://www.nandos.co.uk/restaurants/oxford-cowley-road", "outdoor_seating": "yes", "phone": "+44 1865 203357", "reservation": "no", "takeaway": "yes", "website": "https://www.nandos.co.uk/restaurants/oxford-cowley-road", "website:menu": "https://www.nandos.co.uk/food/menu/", "wheelchair": "yes"}}, {"type": "node", "id": 322721514, "lat": 51.749589, "lon": -1.2429356, "tags": {"addr:housenumber": "23", "addr:postcode": "OX4 1HP", "addr:street": "Cowley Road", "amenity": "cafe", "contact:facebook": "https://www.facebook.com/CafeCocoOxford", "fhrs:id": "268499", "name": "Cafe CoCo", "phone": "+44 1865 200232", "website": "http://www.cafe-coco.co.uk"}}, {"type": "node", "id": 322721532, "lat": 51.7496181, "lon": -1.2430346, "tags": {"addr:city": "Oxford", "addr:housenumber": "21", "addr:postcode": "OX4 1HP", "addr:street": "Cowley Road", "amenity": "restaurant", "breakfast": "no", "check_date": "2025-06-15", "contact:facebook": "https://www.facebook.com/tribe.oxford/", "contact:instagram": "https://www.instagram.com/tribe.oxford/", "contact:tripadvisor": "https://www.tripadvisor.co.uk/Restaurant_Review-g186361-d23801090-Reviews-Tribe-Oxford_Oxfordshire_England.html", "cuisine": "indian;chinese;asian", "delivery": "yes", "description": "There a couple of WEEKEND SPECIAL (LUNCH ONLY) dishes", "diet:gluten_free": "yes", "diet:lactose_free": "yes", "diet:vegan": "yes", "diet:vegetarian": "yes", "dinner": "no", "drink:beer": "yes", "drink:soft_drink": "yes", "drink:wine": "yes", "email": "tribe.oxfordUK@gmail.com", "fhrs:id": "1426971", "lunch": "no", "name": "Tribe", "opening_hours": "We-Mo 17:00-22:00", "opening_hours:url": "https://tribeoxford.co.uk/", "phone": "+44 7413 747888", "reservation": "yes", "reservation:website": "https://tribeoxfordonline.com/book-table", "takeaway": "yes", "website": "https://tribeoxford.co.uk/", "website:menu": "https://tribeoxford.co.uk/menu/"}}, {"type": "node", "id": 322850714, "lat": 51.7533425, "lon": -1.2652021, "tags": {"addr:city": "Oxford", "addr:housenumber": "1-2", "addr:postcode": "OX1 2TA", "addr:street": "Hythe Bridge Street", "amenity": "pub", "diet:vegan": "limited", "diet:vegetarian": "yes", "fhrs:id": "989695", "food": "yes", "name": "The Oxford Retreat", "real_ale": "yes", "source:addr": "FHRS Open Data", "website": "https://www.theoxfordretreat.com/", "wheelchair": "yes"}}, {"type": "node", "id": 322868742, "lat": 51.7478187, "lon": -1.2366302, "tags": {"addr:housenumber": "141-145", "addr:postcode": "OX4 1HU", "addr:street": "Cowley Road", "amenity": "cafe", "fhrs:id": "1718996", "name": "The Community Cafe"}}, {"type": "node", "id": 322869460, "lat": 51.7461421, "lon": -1.2326152, "tags": {"addr:city": "Oxford", "addr:housenumber": "242", "addr:postcode": "OX4 1UH", "addr:street": "Cowley Road", "amenity": "fast_food", "cuisine": "kebab;middle_eastern", "drive_through": "no", "name": "Bodrum Kebab", "phone": "+44 1865 249981", "website": "https://www.bodrumrestaurant.co.uk/"}}, {"type": "node", "id": 323182820, "lat": 51.7521752, "lon": -1.255848}, {"type": "node", "id": 324321280, "lat": 51.7534444, "lon": -1.2617999, "tags": {"addr:city": "Oxford", "addr:housenumber": "41-47", "addr:postcode": "OX1 2BE", "addr:street": "George Street", "alt_name": "Cote Brasserie", "amenity": "restaurant", "brand": "C\u00f4te Brasserie", "brand:wikidata": "Q48699908", "brand:wikipedia": "en:C\u00f4te", "breakfast": "Fr-Sa 10:00-11:30", "check_date": "2025-06-15", "contact:facebook": "https://www.facebook.com/coterestaurant/", "contact:instagram": "https://www.instagram.com/coteuk/", "contact:linkedin": "https://www.linkedin.com/company/c%C3%B4te-brasserie", "contact:tripadvisor": "https://www.tripadvisor.co.uk/Restaurant_Review-g186361-d3607145-Reviews-Cote_Oxford-Oxford_Oxfordshire_England.html", "cuisine": "french", "delivery": "yes", "description": "A Sunday exclusive for two to share - French Sunday Roast. There is an opportunity to join a newsletter.", "diet:gluten_free": "yes", "diet:lactose_free": "yes", "diet:vegan": "yes", "diet:vegetarian": "yes", "dinner": "no", "drink:beer": "yes", "drink:soft_drink": "yes", "drink:wine": "yes", "email": "oxford@cote.co.uk", "fhrs:id": "548824", "lunch": "menu", "lunch:menu": "Mo-Fr 11:30-18:00;Sa 11:30-17:00;Su 11:30-21:00", "name": "C\u00f4te Brasserie", "opening_hours": "Mo-Th 11:30-22:00; Fr,Sa 10:00-23:00; Su 10:00-21:00", "opening_hours:url": "https://www.cote.co.uk/restaurant/oxford", "phone": "+44 1865 251992", "reservation": "yes", "reservation:website": "https://www.cote.co.uk/book-a-table/step1", "smoking": "no", "takeaway": "no", "website": "https://www.cote.co.uk/restaurant/oxford", "website:menu": "https://www.cote.co.uk/restaurant/oxford/menus?menucode=a-la-carte", "wheelchair": "yes"}}, {"type": "node", "id": 324321282, "lat": 51.753356, "lon": -1.2623797, "tags": {"addr:city": "Oxford", "addr:housenumber": "59", "addr:postcode": "OX1 2BE", "addr:street": "George Street", "amenity": "restaurant", "branch": "Oxford", "brand": "Zizzi", "brand:wikidata": "Q8072944", "brand:wikipedia": "en:Zizzi", "breakfast": "no", "changing_table": "yes", "check_date": "2025-06-15", "contact:facebook": "https://www.facebook.com/wearezizzi", "contact:instagram": "https://www.instagram.com/wearezizzi/", "contact:linkedin": "https://www.linkedin.com/company/zizzi-restaurants/", "contact:tiktok": "https://www.tiktok.com/@wearezizzi", "contact:tripadvisor": "https://www.tripadvisor.co.uk/Restaurant_Review-g186361-d1010911-Reviews-Zizzi_Oxford-Oxford_Oxfordshire_England.html", "contact:twitter": "https://x.com/WeAreZizzi", "cuisine": "italian", "delivery": "yes", "description": "There is a 3 course set menu", "diet:gluten_free": "yes", "diet:vegan": "yes", "diet:vegetarian": "yes", "dinner": "no", "drink:beer": "yes", "drink:coffee": "yes", "drink:cola": "yes", "drink:soft_drink": "yes", "drink:sparkling_wine": "yes", "drink:tea": "yes", "drink:wine": "yes", "email": "feedback@zizzi.co.uk", "fhrs:id": "268629", "internet_access": "yes", "lunch": "no", "name": "Zizzi", "opening_hours": "Su-Th 11:30-22:00; Fr,Sa 11:30-23:00", "opening_hours:url": "https://www.zizzi.co.uk/italian/restaurants/oxford", "phone": "+44 1865 202993", "reservation": "yes", "reservation:website": "https://www.zizzi.co.uk/bookings", "takeaway": "yes", "website": "https://www.zizzi.co.uk/italian/restaurants/oxford", "website:menu": "https://www.zizzi.co.uk/menus/eat-in-menu", "wheelchair": "yes"}}, {"type": "node", "id": 324321295, "lat": 51.7532183, "lon": -1.2605985, "tags": {"addr:city": "Oxford", "addr:housenumber": "36", "addr:postcode": "OX1 2EB", "addr:street": "St Michael's Street", "amenity": "restaurant", "breakfast": "no", "check_date": "2025-06-15", "cuisine": "indian", "delivery": "yes", "description": "Student Discount - 10% off for students, Sunday to Wednesday (student ID required). Student Night - Every Thursday.", "diet:vegan": "yes", "diet:vegetarian": "yes", "dinner": "no", "drink:beer": "yes", "drink:cola": "yes", "drink:soft_drink": "yes", "drink:sparkling_wine": "yes", "drink:wine": "yes", "email": "info@chutneysoxford.co.uk", "fhrs:id": "269386", "lunch": "no", "name": "Chutneys Indian Brasserie", "opening_hours": "Mo-Su 17:30-23:00", "opening_hours:url": "https://www.chutneysoxford.co.uk/", "phone": "+44 1865 724241", "reservation": "yes", "reservation:website": "https://www.chutneysoxford.co.uk/reserve-a-table", "takeaway": "yes", "website": "https://www.chutneysoxford.co.uk/", "website:menu": "https://www.chutneysoxford.co.uk/menus", "wheelchair": "no"}}, {"type": "node", "id": 324343283, "lat": 51.7518834, "lon": -1.2574779}, {"type": "node", "id": 324343288, "lat": 51.7519548, "lon": -1.2574385}, {"type": "node", "id": 324343291, "lat": 51.7517564, "lon": -1.2574085}, {"type": "node", "id": 324606222, "lat": 51.7527393, "lon": -1.2504556, "tags": {"addr:housenumber": "40", "addr:postcode": "OX1 4AP", "addr:street": "High Street", "amenity": "cafe", "check_date": "2024-04-18", "fhrs:id": "268720", "name": "Queen's Lane Coffee House", "wikidata": "Q5954426"}}, {"type": "node", "id": 324606225, "lat": 51.7524796, "lon": -1.2505775, "tags": {"addr:postcode": "OX1 4BG", "amenity": "cafe", "check_date": "2023-09-04", "fhrs:id": "268723", "name": "The Grand Caf\u00e9", "website": "https://www.thegrandcafe.co.uk/"}}, {"type": "node", "id": 331745431, "lat": 51.7326476, "lon": -1.207936, "tags": {"amenity": "atm", "operator": "HSBC"}}, {"type": "node", "id": 332324045, "lat": 51.7940954, "lon": -1.2843218, "tags": {"addr:city": "Oxford", "addr:country": "GB", "addr:housename": "Welcome Break Peartree Roundabout", "addr:postcode": "OX2 8JZ", "addr:street": "Woodstock Road", "alt_name": "Kentucky Fried Chicken", "amenity": "fast_food", "brand": "KFC", "brand:wikidata": "Q524757", "brand:wikipedia": "en:KFC", "contact:website": "https://www.kfc.co.uk/kfc-near-me/oxford-peartree-services", "cuisine": "chicken", "drive_through": "no", "fhrs:id": "269255", "indoor_seating": "yes", "name": "KFC", "operator": "KFC", "outdoor_seating": "yes", "phone": "+44 1865 514268", "source:addr": "FHRS Open Data", "source:phone": "receipt", "takeaway": "yes", "wheelchair": "yes"}}, {"type": "node", "id": 336078523, "lat": 51.7375863, "lon": -1.199899}, {"type": "node", "id": 336078525, "lat": 51.7376681, "lon": -1.199855}, {"type": "node", "id": 336078527, "lat": 51.737641, "lon": -1.1997272}, {"type": "node", "id": 336078529, "lat": 51.7375598, "lon": -1.1997725}, {"type": "node", "id": 339169969, "lat": 51.7532066, "lon": -1.2699836, "tags": {"brand": "Marks & Spencer", "brand:short": "M&S", "brand:wikidata": "Q714491", "brand:wikipedia": "en:Marks & Spencer", "check_date": "2025-02-10", "check_date:opening_hours": "2024-07-21", "contact:website": "https://www.marksandspencer.com/stores/oxford-rail-simply-food-120", "fhrs:id": "269238", "name": "M&S Simply Food", "opening_hours": "Mo-We 07:00-21:00; Th-Sa 07:00-22:00; Su 10:00-18:00", "shop": "convenience", "source": "local_knowledge", "wheelchair": "yes"}}, {"type": "node", "id": 339816307, "lat": 51.769326, "lon": -1.2534233}, {"type": "node", "id": 339816309, "lat": 51.7695285, "lon": -1.2535449}, {"type": "node", "id": 339816310, "lat": 51.7699869, "lon": -1.2536826}, {"type": "node", "id": 350467784, "lat": 51.7509851, "lon": -1.2082443, "tags": {"check_date:opening_hours": "2023-10-28", "name": "Girdlestone Stores", "opening_hours:signed": "no", "shop": "convenience"}}, {"type": "node", "id": 361156898, "lat": 51.7208148, "lon": -1.2200387, "tags": {"shop": "convenience"}}, {"type": "node", "id": 365367873, "lat": 51.7623095, "lon": -1.1957653}, {"type": "node", "id": 369847722, "lat": 51.7300465, "lon": -1.2374274, "tags": {"fhrs:id": "268472", "name": "Iffley Community Shop", "shop": "convenience"}}, {"type": "node", "id": 370144533, "lat": 51.7389707, "lon": -1.2348474, "tags": {"addr:housenumber": "297", "addr:postcode": "OX4 4AG", "addr:street": "Iffley Road", "amenity": "post_office", "diet:halal": "no", "name": "Donnington Post Office", "opening_hours": "Mo-Sa 08:00-20:00; Su 10:00-16:00", "shop": "convenience"}}, {"type": "node", "id": 370393104, "lat": 51.7335928, "lon": -1.2251216}, {"type": "node", "id": 370426562, "lat": 51.7333471, "lon": -1.2251326}, {"type": "node", "id": 380044376, "lat": 51.7768323, "lon": -1.2642197}, {"type": "node", "id": 380044392, "lat": 51.7768494, "lon": -1.2642217}, {"type": "node", "id": 381692663, "lat": 51.735946, "lon": -1.240006}, {"type": "node", "id": 387521209, "lat": 51.7471033, "lon": -1.2350513, "tags": {"addr:city": "Oxford", "addr:housenumber": "178", "addr:postcode": "OX4 1UE", "addr:street": "Cowley Road", "alt_name": "Rice Box Chinese restaurant and takeaway", "amenity": "restaurant", "breakfast": "no", "check_date": "2025-06-15", "contact:facebook": "https://www.facebook.com/p/Rice-Box-Restaurant-Oxford-100063670446095/", "contact:tripadvisor": "https://www.tripadvisor.co.uk/Restaurant_Review-g186361-d1316407-Reviews-Rice_Box-Oxford_Oxfordshire_England.html", "cuisine": "chinese;chicken;noodle", "delivery": "yes", "diet:vegetarian": "yes", "dinner": "no", "email": "info@riceboxrestaurant.co.uk", "fhrs:id": "268526", "level": "0", "lunch": "no", "name": "The Rice Box", "opening_hours": "Mo-Su 12:00-23:30", "opening_hours:url": "https://riceboxoxford.co.uk/info", "phone": "+44 1865 202138", "reservation": "no", "takeaway": "yes", "website": "https://riceboxoxford.co.uk/", "website:menu": "https://riceboxoxford.co.uk/", "wheelchair": "limited"}}, {"type": "node", "id": 413289371, "lat": 51.7493572, "lon": -1.2009267, "tags": {"addr:city": "Oxford", "addr:housenumber": "3", "addr:postcode": "OX3 8RA", "addr:street": "Atkyns Road", "addr:suburb": "Headington", "fhrs:id": "1584154", "name": "Turna", "opening_hours": "Mo-Th 11:00-21:30; Fr,Sa 11:00-22:00; Su 11:00-21:00", "shop": "convenience"}}, {"type": "node", "id": 429998564, "lat": 51.7350675, "lon": -1.205833, "tags": {"addr:city": "Oxford", "addr:country": "GB", "addr:housenumber": "95,97", "addr:postcode": "OX4 2JB", "addr:street": "Wilkins Road", "brand": "Best-one", "brand:wikidata": "Q4896532", "brand:wikipedia": "en:Best-one", "contact:website": "https://stores.best-one.co.uk/wiggleys-corner-shop-best-one-153c82fb7261", "fhrs:id": "269477", "name": "Best-one", "shop": "convenience"}}, {"type": "node", "id": 429998580, "lat": 51.7355358, "lon": -1.20549, "tags": {"addr:city": "Oxford", "addr:country": "GB", "addr:housenumber": "81;81A", "addr:postcode": "OX4 2JB", "addr:street": "Wilkins Road", "fhrs:id": "268916", "name": "Stonecznik", "shop": "convenience", "wheelchair": "limited"}}, {"type": "node", "id": 429998584, "lat": 51.7353359, "lon": -1.2056298, "tags": {"addr:city": "Oxford", "addr:country": "GB", "addr:housenumber": "87;87A", "addr:postcode": "OX4 2JB", "addr:street": "Wilkins Road", "amenity": "fast_food", "cuisine": "sandwich", "fhrs:id": "1672522", "name": "Bunny's"}}, {"type": "node", "id": 430190644, "lat": 51.7382472, "lon": -1.2069191, "tags": {"addr:housenumber": "126", "addr:street": "Hollow Way", "amenity": "fast_food", "cuisine": "chinese", "diet:vegan": "no", "diet:vegetarian": "yes", "fhrs:id": "1664073", "name": "Panda House"}}, {"type": "node", "id": 430207099, "lat": 51.7362361, "lon": -1.2087821, "tags": {"addr:housenumber": "61", "addr:street": "Hollow Way", "alt_name": "Singh's", "name": "Today's Local", "shop": "convenience"}}, {"type": "node", "id": 463298012, "lat": 51.7520808, "lon": -1.289257}, {"type": "node", "id": 463298013, "lat": 51.7520626, "lon": -1.2889723}, {"type": "node", "id": 463298014, "lat": 51.7515668, "lon": -1.289055}, {"type": "node", "id": 463298015, "lat": 51.7515724, "lon": -1.2891435}, {"type": "node", "id": 465460535, "lat": 51.7586197, "lon": -1.2615518, "tags": {"addr:city": "Oxford", "addr:housename": "Unit 3, Dartington House", "addr:housenumber": "55", "addr:postcode": "OX1 2HS", "addr:street": "Little Clarendon Street", "addr:unit": "Unit 3", "amenity": "bar", "fhrs:id": "1378231", "name": "Angels", "phone": "+44 1865 554224", "source:addr": "FHRS Open Data", "website": "https://www.angelscocktailbar.co.uk/"}}, {"type": "node", "id": 467652897, "lat": 51.7533993, "lon": -1.2620909, "tags": {"addr:city": "Oxford", "addr:country": "GB", "addr:housenumber": "51-53", "addr:postcode": "OX1 2BE", "addr:street": "George Street", "amenity": "pub", "brand": "Wetherspoon", "brand:wikidata": "Q6109362", "brand:wikipedia": "en:Wetherspoons", "dailyinfo:venue_id": "620", "diet:vegan": "yes", "diet:vegetarian": "yes", "fhrs:id": "269058", "food": "yes", "name": "The Four Candles", "opening_hours": "Mo-We 09:00-23:00; Th-Sa 09:00-01:00; Su 09:00-24:00", "phone": "+44 1865 263110", "website": "https://www.jdwetherspoon.com/pubs/all-pubs/england/oxfordshire/the-four-candles-oxford", "wheelchair": "limited", "wikidata": "Q88917759"}}, {"type": "node", "id": 471723339, "lat": 51.7537492, "lon": -1.2588583, "tags": {"addr:city": "Oxford", "addr:country": "GB", "addr:housenumber": "35", "addr:postcode": "OX1 3EZ", "addr:street": "Cornmarket Street", "alt_name": "Kentucky Fried Chicken", "amenity": "fast_food", "brand": "KFC", "brand:wikidata": "Q524757", "brand:wikipedia": "en:KFC", "contact:website": "https://www.kfc.co.uk/kfc-near-me/oxford-cornmarket-street", "cuisine": "chicken", "drive_through": "no", "fhrs:id": "1724536", "name": "KFC", "source:addr": "FHRS Open Data", "takeaway": "yes", "wheelchair": "limited", "wikidata": "Q26586944"}}, {"type": "node", "id": 499424664, "lat": 51.7460979, "lon": -1.2318697, "tags": {"addr:city": "Oxford", "addr:housenumber": "209", "addr:postcode": "OX4 1XF", "addr:street": "Cowley Road", "alt_name": "Oodles Wok", "amenity": "restaurant", "branch": "Oxford", "brand": "Oodles", "breakfast": "no", "check_date": "2025-06-15", "contact:facebook": "https://www.facebook.com/oodleswokuk/", "contact:instagram": "https://www.instagram.com/oodleswok_uk/", "contact:tiktok": "https://www.tiktok.com/@oodleswokuk", "contact:tripadvisor": "https://www.tripadvisor.co.uk/Restaurant_Review-g186361-d24986038-Reviews-Oodles_Wok_Oxford-Oxford_Oxfordshire_England.html", "cuisine": "chinese;chicken", "delivery": "yes", "description": "There is an opportunity to join a newsletter", "diet:vegetarian": "yes", "dinner": "no", "drink:soft_drink": "yes", "drink:tea": "yes", "email": "socialmedia@oodleswok.com", "fhrs:id": "1516621", "lunch": "no", "name": "Oodles", "opening_hours": "Mo-Th 12:00-22:45; Fr-Su 12:00-23:00", "opening_hours:url": "https://oodleswok.co.uk/locations/", "phone": "+44 1865 800032", "reservation": "no", "reservation:website": "2025-06-15", "takeaway": "yes", "website": "https://oodleschinese.com/", "website:menu": "https://oodleswok.co.uk/our-food/"}}, {"type": "node", "id": 499424669, "lat": 51.7454291, "lon": -1.230345, "tags": {"addr:housenumber": "239", "addr:postcode": "OX4 1UR", "addr:street": "Cowley Road", "amenity": "fast_food", "fhrs:id": "1581672", "name": "Panini Grill Cafe"}}, {"type": "node", "id": 504744172, "lat": 51.7458318, "lon": -1.2319248, "tags": {"addr:housenumber": "266", "addr:postcode": "OX4 1UH", "addr:street": "Cowley Road", "amenity": "fast_food", "check_date": "2023-09-24", "fhrs:id": "955350", "name": "Peri'os", "phone": "+44 1865 247771"}}, {"type": "node", "id": 504744408, "lat": 51.7459093, "lon": -1.2321037, "tags": {"addr:city": "Oxford", "addr:county": "Oxfordshire", "addr:housenumber": "260", "addr:postcode": "OX4 1UH", "addr:street": "Cowley Road", "alt_name": "MOMO", "amenity": "fast_food", "cuisine": "nepalese;indian;tibetan;chinese", "delivery": "yes", "fhrs:id": "1735590", "name": "Momo Station", "opening_hours": "Mo-Sa 12:15-00:45; Su 12:15-23:45", "opening_hours:url": "https://momo-station.co.uk/", "phone": "+44 1865 204204", "reservation": "yes", "reservation:website": "https://momostationoxford.co.uk/book-table", "source:addr": "FHRS Open Data", "takeaway": "yes", "website": "https://momo-station.co.uk/"}}, {"type": "node", "id": 504744802, "lat": 51.7460087, "lon": -1.2323351, "tags": {"addr:city": "Oxford", "addr:county": "Oxfordshire", "addr:housenumber": "252", "addr:postcode": "OX4 1UH", "addr:street": "Cowley Road", "amenity": "fast_food", "fhrs:id": "1776606", "name": "Zakho", "source:addr": "FHRS Open Data"}}, {"type": "node", "id": 504744982, "lat": 51.7460363, "lon": -1.2323962, "tags": {"addr:housenumber": "250", "addr:street": "Cowley Road", "amenity": "fast_food", "brand": "Pepe's", "brand:wikidata": "Q120645662", "cuisine": "chicken", "fhrs:id": "1042837", "name": "Pepe's", "takeaway": "yes", "website": "https://www.pepes.co.uk/store/oxford"}}, {"type": "node", "id": 504745226, "lat": 51.7460611, "lon": -1.2324485, "tags": {"addr:housenumber": "248", "addr:postcode": "OX4 1UH", "addr:street": "Cowley Road", "amenity": "fast_food", "cuisine": "italian", "fhrs:id": "268785", "name": "Pizza Roma", "website": "www.pizzaromaoxford.co.uk"}}, {"type": "node", "id": 504745335, "lat": 51.7461149, "lon": -1.2325601, "tags": {"addr:housenumber": "244", "addr:postcode": "OX4 1UH", "addr:street": "Cowley Road", "amenity": "fast_food", "disused": "yes", "fhrs:id": "867882", "name": "Exprizza & Desigrill"}}, {"type": "node", "id": 504745505, "lat": 51.7461691, "lon": -1.2326693, "tags": {"addr:housenumber": "240", "addr:postcode": "OX4 1UH", "addr:street": "Cowley Road", "amenity": "bar", "fhrs:id": "867884", "name": "Cafe Baba"}}, {"type": "node", "id": 504745629, "lat": 51.7462424, "lon": -1.232843, "tags": {"addr:housenumber": "234", "addr:postcode": "OX4 1UH", "addr:street": "Cowley Road", "amenity": "bar", "fhrs:id": "1268488", "name": "The Baron", "opening_hours": "Mo-Su 17:00-02:00"}}, {"type": "node", "id": 504746203, "lat": 51.7465793, "lon": -1.2336259, "tags": {"addr:city": "Oxford", "addr:housename": "Raja House", "addr:housenumber": "212-214", "addr:postcode": "OX4 1UQ", "addr:street": "Cowley Road", "alt_name": "NEF Istanbul", "amenity": "restaurant", "breakfast": "no", "check_date": "2025-06-15", "contact:facebook": "https://www.facebook.com/nefistanbulrestaurant/?ref=py_c", "contact:instagram": "https://www.instagram.com/nefistanbulrestaurant/", "contact:tripadvisor": "https://www.tripadvisor.co.uk/Restaurant_Review-g186361-d15756307-Reviews-NEF_Istanbul_Restaurant-Oxford_Oxfordshire_England.html", "cuisine": "turkish;kebab", "delivery": "yes", "description": "There is an opportunity to join a newsletter.", "diet:vegetarian": "yes", "dinner": "no", "drink:cola": "yes", "drink:soft_drink": "yes", "email": "info@nefistanbul.co.uk", "fhrs:id": "1567229", "lunch": "no", "name": "Nef Istanbul Restaurant", "opening_hours": "Mo-Sa 11:00-23:00; Su 12:00-22:00", "opening_hours:url": "https://www.nefistanbul.co.uk/home-1", "phone": "+44 1865 250170", "reservation": "yes", "reservation:website": "https://www.nefistanbul.co.uk/", "takeaway": "yes", "website": "https://www.nefistanbul.co.uk/home-1", "website:menu": "https://www.nefistanbul.co.uk/online-ordering"}}, {"type": "node", "id": 504747576, "lat": 51.746965, "lon": -1.2346624, "tags": {"addr:housenumber": "188", "addr:postcode": "OX4 1UE", "addr:street": "Cowley Road", "fhrs:id": "268917", "name": "Jing Jing Oriental Food Store", "shop": "convenience"}}, {"type": "node", "id": 504748231, "lat": 51.7470862, "lon": -1.2349897, "tags": {"addr:city": "Oxford", "addr:housenumber": "180", "addr:postcode": "OX4 1UE", "addr:street": "Cowley Road", "amenity": "restaurant", "cuisine": "lebanese;moroccan;mediterranean", "delivery": "yes", "diet:vegetarian": "yes", "email": "info@keshoxford.com", "fhrs:id": "268528", "name": "Le Kesh", "opening_hours": "Mo-Fr 17:00-23:00; Sa-Su 12:30-23:00", "opening_hours:url": "https://keshoxford.com/", "phone": "+44 1865 202077", "reservation": "yes", "reservation:website": "https://keshoxford.com/online-booking/", "takeaway": "yes", "website": "https://keshoxford.com/"}}, {"type": "node", "id": 504749436, "lat": 51.7472734, "lon": -1.2348358, "tags": {"addr:city": "Oxford", "addr:housenumber": "179", "addr:postcode": "OX4 1UT", "addr:street": "Cowley Road", "alt_name": "Jin Jin Chinese Restaurant", "amenity": "restaurant", "cuisine": "chinese", "delivery": "yes", "fhrs:id": "1268497", "name": "Jin Jin Restaurant", "opening_hours": "Mo-Fr 16:30-23:00; Sa-Su 16:30-23:00", "opening_hours:url": "https://jinjinchineserestaurant.co.uk/", "phone": "+44 1865 203763", "reservation": "yes", "reservation:website": "https://orders.jinjinchineserestaurant.co.uk/app/reservations", "takeaway": "yes", "website": "https://jinjinchineserestaurant.co.uk/"}}, {"type": "node", "id": 504749614, "lat": 51.7473025, "lon": -1.2349311, "tags": {"addr:housenumber": "175-177", "addr:postcode": "OX4 1UT", "addr:street": "Cowley Road", "amenity": "fast_food", "brand": "Subway", "brand:wikidata": "Q244457", "brand:wikipedia": "en:Subway (restaurant)", "contact:website": "https://restaurants.subway.com/united-kingdom/en/oxford/175-cowley-road", "cuisine": "sandwich", "fhrs:id": "1519432", "name": "Subway", "phone": "+44 1865 204666", "takeaway": "yes"}}, {"type": "node", "id": 504751487, "lat": 51.7476448, "lon": -1.2367602, "tags": {"addr:housenumber": "146", "addr:postcode": "OX4 1JJ", "addr:street": "Cowley Road", "amenity": "fast_food", "cuisine": "kebab", "fhrs:id": "743834", "name": "Kebab Kid", "phone": "+44 1865 721721"}}, {"type": "node", "id": 504751593, "lat": 51.7476952, "lon": -1.2369403, "tags": {"addr:country": "GB", "addr:housenumber": "140", "addr:postcode": "OX4 1JJ", "addr:street": "Cowley Road", "alt_name": "Kentucky Fried Chicken", "amenity": "fast_food", "brand": "KFC", "brand:wikidata": "Q524757", "brand:wikipedia": "en:KFC", "contact:website": "https://www.kfc.co.uk/kfc-near-me/oxford-cowley-road", "cuisine": "chicken", "drive_through": "no", "fhrs:id": "268520", "name": "KFC", "takeaway": "yes"}}, {"type": "node", "id": 504751932, "lat": 51.7478499, "lon": -1.236736, "tags": {"addr:city": "Oxford", "addr:housename": "Brousko", "addr:housenumber": "137-139", "addr:postcode": "OX4 1HU", "addr:street": "Cowley Road", "amenity": "restaurant", "check_date": "2025-06-15", "contact:facebook": "https://www.facebook.com/people/Afghan-Cuisine/61565929422616/", "cuisine": "kebab;afghan", "delivery": "yes", "fhrs:id": "1761253", "name": "Afghan Cuisine", "opening_hours": "Mo-Su 13:00-24:00", "opening_hours:url": "https://www.facebook.com/people/Afghan-Cuisine/61565929422616/", "phone": "+44 1865 493165", "reservation": "no", "takeaway": "yes"}}, {"type": "node", "id": 504752032, "lat": 51.7479076, "lon": -1.2369322, "tags": {"addr:housenumber": "131", "addr:postcode": "OX4 1HU", "addr:street": "Cowley Road", "amenity": "cafe", "name": "Vintage Refresh"}}, {"type": "node", "id": 504753150, "lat": 51.7484039, "lon": -1.23928, "tags": {"addr:housenumber": "104", "addr:postcode": "OX4 1JE", "addr:street": "Cowley Road", "amenity": "cafe", "check_date": "2023-09-24", "cuisine": "ice_cream", "food": "yes", "name": "George & Delila", "opening_hours": "Mo-Su 08:00-24:00", "operator": "G&D's", "phone": "+44 1865 727111", "url": "http://www.gdcafe.com/website/index.php/Locations/CR", "wikidata": "Q5511822", "wikipedia": "en:G&D's"}}, {"type": "node", "id": 504757288, "lat": 51.7425448, "lon": -1.2268831, "tags": {"addr:city": "Oxford", "addr:housenumber": "366,366A", "addr:street": "Cowley Road", "alt_name": "OCS", "contact:phone": "07424330293", "fhrs:id": "1111099", "level": "0", "name": "Oxford Corner Shop", "opening_hours": "Mo-Su 08:00-23:00", "shop": "convenience", "wheelchair": "yes"}}, {"type": "node", "id": 505371324, "lat": 51.7451079, "lon": -1.2301551, "tags": {"addr:city": "Oxford", "addr:housenumber": "286", "addr:postcode": "OX4 1UR", "addr:street": "Cowley Road", "amenity": "fast_food", "check_date": "2023-09-24", "cuisine": "chinese", "fhrs:id": "268545", "name": "Sunny", "phone": "+44 1865 245955"}}, {"type": "node", "id": 507443819, "lat": 51.7503739, "lon": -1.2417194, "tags": {"addr:city": "Oxford", "addr:housenumber": "43b", "addr:postcode": "OX4 1AG", "addr:street": "St Clements", "amenity": "restaurant", "cuisine": "asian", "delivery": "yes", "diet:gluten_free": "yes", "diet:vegan": "yes", "fhrs:id": "982226", "name": "Pan Pan", "opening_hours": "Mo-Su 12:00-22:00", "opening_hours:url": "https://panpanoxford.com/#opening", "phone": "+44 1865 203000", "reservation": "yes", "reservation:website": "https://web.dojo.app/create_booking/vendor/-Bdi05wwjk9UgTvXfoxDpLBUDHROksKSZZC4RAk8Ygg_restaurant", "takeaway": "yes", "website": "https://panpanoxford.com/"}}, {"type": "node", "id": 522777084, "lat": 51.7423384, "lon": -1.2555032, "tags": {"addr:city": "Oxford", "addr:housenumber": "86", "addr:postcode": "OX1 4PL", "addr:street": "Abingdon Road", "brand": "Londis", "brand:wikidata": "Q21008564", "fhrs:id": "268323", "name": "Londis", "opening_hours": "Mo-Su 08:00-20:00", "shop": "convenience", "source:addr": "FHRS Open Data", "website": "https://www.londis.co.uk/our-stores/abingdon-road-londis", "wheelchair": "no"}}, {"type": "node", "id": 522986710, "lat": 51.7525434, "lon": -1.2528443, "tags": {"addr:city": "Oxford", "addr:housenumber": "90", "addr:postcode": "OX1 4BJ", "addr:street": "High Street", "amenity": "cafe", "diet:gluten_free": "yes", "drink:coffee": "yes", "drink:tea": "yes", "fhrs:id": "1747309", "indoor_seating": "yes", "name": "Saint Clair Valentine Patisserie", "opening_hours": "Mo-Sa 08:00-18:30; Su 09:00-18:30", "outdoor_seating": "no", "takeaway": "yes", "website": "https://www.saintclairvalentine.com/"}}, {"type": "node", "id": 530773081, "lat": 51.7645563, "lon": -1.261839, "tags": {"amenity": "fast_food", "cuisine": "italian", "fhrs:id": "952048", "name": "Viny's North", "opening_hours": "Mo-Fr 09:00-16:00"}}, {"type": "node", "id": 530773112, "lat": 51.7646084, "lon": -1.2620429, "tags": {"addr:city": "Oxford", "addr:housenumber": "9", "addr:postcode": "OX2 6LX", "addr:street": "North Parade Avenue", "amenity": "cafe", "cuisine": "sandwich", "name": "Barefoot Coffee & Cake", "opening_hours": "Mo-Fr 07:00-18:00; Sa, Su 08:00-18:00", "website": "https://www.barefootoxford.co.uk/"}}, {"type": "node", "id": 530775839, "lat": 51.7647318, "lon": -1.2615835, "tags": {"addr:city": "Oxford", "addr:housenumber": "15", "addr:postcode": "OX2 6LX", "addr:street": "North Parade Avenue", "amenity": "restaurant", "check_date": "2023-07-30", "cuisine": "indian", "delivery": "yes", "fhrs:id": "268874", "name": "Jee Saheb", "opening_hours": "Tu-Th,Sa,Su 12:00-14:00,18:00-22:00; Fr 18:00-22:00", "opening_hours:url": "https://www.jeesaheb.co.uk/", "phone": "+44 1865 513773", "reservation": "yes", "reservation:website": "https://orders.jeesaheb.co.uk/app/reservations", "takeaway": "yes", "website": "https://www.jeesaheb.co.uk/"}}, {"type": "node", "id": 534789332, "lat": 51.7488522, "lon": -1.240824, "tags": {"addr:city": "Oxford", "addr:housenumber": "72-74", "addr:postcode": "OX4 1JB", "addr:street": "Cowley Road", "amenity": "restaurant", "cuisine": "tapas;spanish", "delivery": "no", "fhrs:id": "949738", "name": "Arbequina", "opening_hours": "Th-Fr 17:00-22:00; Sa 12:00-23:30", "opening_hours:kitchen": "Th-Fr 17:00-22:00; Sa 12:00-14:45,16:30-21:30", "opening_hours:url": "https://arbequina.co.uk/booking", "phone": "+44 1865 792777", "reservation": "yes", "reservation:website": "https://arbequina.co.uk/booking", "takeaway": "no", "website": "https://arbequina.co.uk/"}}, {"type": "node", "id": 534793904, "lat": 51.7483283, "lon": -1.2397356}, {"type": "node", "id": 539500444, "lat": 51.7356139, "lon": -1.216386}, {"type": "node", "id": 539500449, "lat": 51.7356368, "lon": -1.2164365}, {"type": "node", "id": 539516306, "lat": 51.7413381, "lon": -1.2246871, "tags": {"addr:housenumber": "387", "addr:postcode": "OX4 2BS", "addr:street": "Cowley Road", "amenity": "fast_food", "brand": "Caprinos", "brand:wikidata": "Q125623745", "cuisine": "pizza", "fhrs:id": "1004743", "name": "Caprinos Pizza", "takeaway": "yes", "website": "https://oxford.caprinospizza.co.uk/"}}, {"type": "node", "id": 539530959, "lat": 51.736712, "lon": -1.2183952}, {"type": "node", "id": 539530960, "lat": 51.7368539, "lon": -1.2181739}, {"type": "node", "id": 539530961, "lat": 51.7369042, "lon": -1.218258}, {"type": "node", "id": 539530962, "lat": 51.7367623, "lon": -1.2184793}, {"type": "node", "id": 539530989, "lat": 51.7356166, "lon": -1.2156151}, {"type": "node", "id": 539560503, "lat": 51.7325503, "lon": -1.2081393}, {"type": "node", "id": 539560504, "lat": 51.732519, "lon": -1.2080439}, {"type": "node", "id": 539560513, "lat": 51.7327074, "lon": -1.2080055}, {"type": "node", "id": 539560514, "lat": 51.7326767, "lon": -1.2079112}, {"type": "node", "id": 540221202, "lat": 51.7682547, "lon": -1.2405575, "tags": {"name": "Salford Stores", "shop": "convenience"}}, {"type": "node", "id": 540285104, "lat": 51.7509871, "lon": -1.2081433, "tags": {"amenity": "fast_food", "check_date:opening_hours": "2023-10-28", "cuisine": "indian", "fhrs:id": "268639", "name": "Nawabi", "opening_hours:signed": "no"}}, {"type": "node", "id": 553028844, "lat": 51.7505344, "lon": -1.2570903, "tags": {"addr:city": "Oxford", "addr:housenumber": "94", "addr:postcode": "OX1 1BT", "addr:street": "St Aldate's", "amenity": "cafe", "cuisine": "ice_cream", "fhrs:id": "269309", "food": "yes", "name": "George and Danver", "opening_hours": "Mo-Su 08:00-24:00", "operator": "G&D's", "phone": "+44 1865 245952", "toilets:wheelchair": "no", "url": "https://www.gdcafe.com/web/", "wheelchair": "no", "wikidata": "Q5511822", "wikipedia": "en:G&D's"}}, {"type": "node", "id": 571830808, "lat": 51.7525133, "lon": -1.2688666, "tags": {"addr:city": "Oxford", "addr:country": "GB", "addr:housenumber": "18", "addr:postcode": "OX1 1HU", "addr:street": "Park End Street", "amenity": "fast_food", "brand": "Domino's", "brand:wikidata": "Q839466", "brand:wikipedia": "en:Domino's Pizza", "contact:phone": "+44 1865 200222", "contact:website": "https://www.dominos.co.uk/pizza-near-me/oxford/18-19-park-end-street", "cuisine": "pizza", "fhrs:id": "269148", "name": "Domino's", "takeaway": "yes"}}, {"type": "node", "id": 571833509, "lat": 51.7525435, "lon": -1.2680803, "tags": {"addr:city": "Oxford", "addr:housenumber": "25", "addr:postcode": "OX1 1HU", "addr:street": "Park End Street", "amenity": "fast_food", "cuisine": "indian", "drive_through": "no", "fhrs:id": "269171", "name": "Dosa Park", "outdoor_seating": "yes", "phone": "+44 1865 791197"}}, {"type": "node", "id": 590499640, "lat": 51.7471448, "lon": -1.2351942, "tags": {"addr:city": "Oxford", "addr:housenumber": "174", "addr:postcode": "OX4 1UE", "addr:street": "Cowley Road", "amenity": "cafe", "check_date": "2023-09-24", "cuisine": "coffee_shop", "fhrs:id": "1672513", "name": "Love Coffee Co.", "old_name": "Joe Austin Florist", "old_shop": "florist", "opening_hours": "Mo-Fr 06:00-20:00; Sa 06:00-21:00; Su 07:30-20:00", "outdoor_seating": "yes"}}, {"type": "node", "id": 611917363, "lat": 51.7522047, "lon": -1.2583282, "tags": {"addr:city": "Oxford", "addr:housenumber": "59a", "addr:postcode": "OX1 3HB", "addr:street": "Cornmarket Street", "amenity": "pub", "brand": "Nicholson's", "brand:wikidata": "Q113130666", "fhrs:id": "268488", "name": "The Crown", "website": "https://www.nicholsonspubs.co.uk/restaurants/southeast/thecrownoxford"}}, {"type": "node", "id": 617693821, "lat": 51.7465094, "lon": -1.233451, "tags": {"addr:city": "Oxford", "addr:housenumber": "218", "addr:postcode": "OX4 1UQ", "addr:street": "Cowley Road", "alt_name": "Il Gusto Oxford LTD", "amenity": "restaurant", "cuisine": "italian", "delivery": "no", "fhrs:id": "1680803", "name": "FRESCO", "old_name": "Il Gusto", "opening_hours": "Tu-Th 17:00-22:00; Fr-Su 12:00-22:00", "opening_hours:url": "https://www.frescooxford.co.uk/", "phone": "+44 1865 455336", "reservation": "yes", "reservation:website": "https://www.frescooxford.co.uk/bookings", "takeaway": "yes", "website": "https://www.frescooxford.co.uk/"}}, {"type": "node", "id": 619315032, "lat": 51.7286478, "lon": -1.2253947, "tags": {"addr:city": "Oxford", "addr:housenumber": "2", "addr:postcode": "OX4 4JA", "addr:street": "Courtland Road", "addr:suburb": "Rose Hill", "brand": "Premier", "brand:wikidata": "Q7240340", "name": "Old Man's Premier", "operator": "Premier", "shop": "convenience"}}, {"type": "node", "id": 619315039, "lat": 51.7287666, "lon": -1.2253466, "tags": {"addr:city": "Oxford", "addr:housenumber": "80", "addr:postcode": "OX4 4HS", "addr:street": "Rose Hill", "amenity": "fast_food", "brand:wikidata": "Q2759586", "check_date": "2024-10-15", "check_date:opening_hours": "2024-10-15", "cuisine": "pizza", "name": "Papa John's", "opening_hours": "Mo-Su 11:00-23:00", "operator": "Papa John's", "phone": "+44 1865 402050", "website": "https://www.papajohns.co.uk/stores/oxford-rosehill"}}, {"type": "node", "id": 619315043, "lat": 51.7288613, "lon": -1.2253706, "tags": {"addr:city": "Oxford", "addr:housenumber": "78", "addr:postcode": "OX4 4HS", "addr:street": "Rose Hill", "amenity": "fast_food", "cuisine": "fish_and_chips", "name": "Salt & Vinegar", "website": "https://saltandvinegar.co/"}}, {"type": "node", "id": 619315057, "lat": 51.7282582, "lon": -1.2254095, "tags": {"amenity": "cafe", "fhrs:id": "1292338", "name": "The Egg Cafe"}}, {"type": "node", "id": 619315070, "lat": 51.7281128, "lon": -1.2250393, "tags": {"addr:city": "Oxford", "addr:housenumber": "84", "addr:postcode": "OX4 4HX", "addr:street": "The Parade", "addr:suburb": "Rose Hill", "amenity": "fast_food", "cuisine": "chinese;fish_and_chips", "fhrs:id": "729287", "name": "House of Tim", "website": "https://www.houseoftimoxford.co.uk/"}}, {"type": "node", "id": 619315088, "lat": 51.727829, "lon": -1.2248884, "tags": {"amenity": "fast_food", "cuisine": "chicken;burger;kebab", "fhrs:id": "1635459", "name": "Lilo"}}, {"type": "node", "id": 619315113, "lat": 51.7277193, "lon": -1.2248344, "tags": {"addr:city": "Oxford", "addr:housenumber": "98-98a", "addr:postcode": "OX4 4HX", "addr:street": "The Parade", "addr:suburb": "Rose Hill", "amenity": "cafe", "cuisine": "bangladeshi", "fhrs:id": "269275", "name": "Cafe Spice", "website": "http://www.cafespiceoxford.co.uk/"}}, {"type": "node", "id": 619315115, "lat": 51.7277651, "lon": -1.2248627, "tags": {"addr:city": "Oxford", "addr:housenumber": "96", "addr:postcode": "OX4 4HX", "addr:street": "Rose Hill", "alt_name": "Polish Kitchen", "amenity": "restaurant", "capacity": "26", "cuisine": "polish", "delivery": "yes", "fhrs:id": "1726788", "name": "Polish Kitchen Oxford", "opening_hours": "Mo-Su 12:00-21:00", "opening_hours:url": "https://www.polishkitchen.uk/", "phone": "+44 1865 770001", "reservation": "yes", "takeaway": "yes", "website": "https://www.polishkitchen.uk/"}}, {"type": "node", "id": 619325341, "lat": 51.7471239, "lon": -1.2351154, "tags": {"addr:housenumber": "176", "addr:postcode": "OX4 1UE", "addr:street": "Cowley Road", "fhrs:id": "1341271", "name": "Brasileiro", "shop": "convenience", "website": "https://brasileiroonline.co.uk"}}, {"type": "node", "id": 619335918, "lat": 51.7477427, "lon": -1.2371096, "tags": {"addr:city": "Oxford", "addr:housenumber": "136", "addr:postcode": "OX4 1JJ", "addr:street": "Cowley Road", "alt_name": "Massaya", "amenity": "restaurant", "check_date": "2025-06-15", "contact:instagram": "https://www.instagram.com/massyarestaurant/", "cuisine": "lebanese;arab;middle_eastern", "delivery": "yes", "fhrs:id": "1794035", "name": "Massaya Lebanese Restaurant Oxford", "opening_hours": "Mo-Su 12:00-23:00", "opening_hours:url": "https://www.ubereats.com/gb/store/massaya-restaurant-oxford/fM0R3hnvTPuUHdrbPT8A1w?diningMode=DELIVERY&mod=storeInfo&modctx=%257B%2522storeSlug%2522%253A%2522massaya-restaurant-oxford%2522%252C%2522storeUuid%2522%253A%25227ccd11de-19ef-4cfb-941d-dadb3d3f0", "phone": "+44 1865 450738", "reservation": "no", "takeaway": "no"}}, {"type": "node", "id": 639133497, "lat": 51.7245593, "lon": -1.1991889, "tags": {"addr:city": "Oxford", "addr:housename": "Balfour Road Post Office", "addr:housenumber": "69", "addr:postcode": "OX4 6AG", "addr:street": "Balfour Road", "brand": "Morrisons Daily", "brand:wikidata": "Q99752411", "fhrs:id": "1522412", "name": "Morrisons Daily", "shop": "convenience", "source:addr": "FHRS Open Data", "source:name": "FHRS Open Data"}}, {"type": "node", "id": 643775481, "lat": 51.7521975, "lon": -1.2486542, "tags": {"addr:housenumber": "67-68", "addr:postcode": "OX1 4BA", "addr:street": "High Street", "amenity": "cafe", "fhrs:id": "777803", "indoor_seating": "yes", "name": "High Street Cafe", "outdoor_seating": "no", "source:addr:postcode": "FSA Food Hygiene Ratings Database"}}, {"type": "node", "id": 659858763, "lat": 51.7535899, "lon": -1.2621566, "tags": {"amenity": "cafe", "check_date": "2024-04-21", "cuisine": "sandwich", "name": "Old Fire Station Caf\u00e9"}}, {"type": "node", "id": 659858765, "lat": 51.7537451, "lon": -1.2612004, "tags": {"amenity": "fast_food", "cuisine": "kebab", "name": "Kebab Kid", "wheelchair": "no", "wheelchair:description": "2 uneven steps to get in from the street"}}, {"type": "node", "id": 659858767, "lat": 51.7538069, "lon": -1.2612334, "tags": {"addr:city": "Oxford", "addr:housename": "Threeway House", "addr:postcode": "OX1 2BT", "addr:source": "https://www.angridthai.com/find-us", "addr:street": "George Street", "addr:unit": "D", "alt_name": "Angrid Thai", "amenity": "restaurant", "check_date": "2025-06-15", "contact:instagram": "https://www.instagram.com/angridthai/", "cuisine": "thai", "delivery": "yes", "fhrs:id": "269224", "name": "Angrid Thai", "opening_hours": "Mo 11:30-21:00; Tu-Su 11:30-22:00", "opening_hours:url": "https://www.angridthai.com/", "phone": "+44 1865 791898", "reservation": "yes", "reservation:website": "https://autoreserve.com/en/restaurants/jaiJueqsTajwGiPALuHK", "source": "photograph", "source:addr": "FHRS Open Data", "takeaway": "yes", "website": "https://www.angridthai.com/", "wheelchair": "yes", "wheelchair:description": "Restaurant is accessible from the street with no steps, however toilets are downstairs... Many steps."}}, {"type": "node", "id": 659858768, "lat": 51.7535341, "lon": -1.2607996, "tags": {"amenity": "pub", "brand": "O'Neill's", "brand:wikidata": "Q7071905", "food": "yes", "name": "O'Neill's", "wheelchair": "limited"}}, {"type": "node", "id": 659858773, "lat": 51.7537177, "lon": -1.2597135, "tags": {"addr:city": "Oxford", "addr:housenumber": "9-13", "addr:postcode": "OX1 2AU", "addr:street": "George Street", "amenity": "pub", "brand": "Greene King", "brand:wikidata": "Q5564162", "brand:wikipedia": "en:Greene King", "diet:vegan": "limited", "diet:vegetarian": "yes", "fhrs:id": "268617", "name": "Wig and Pen", "operator": "Greene King", "real_ale": "yes", "source:addr:postcode": "FHRS Open Data", "toilets": "yes", "toilets:access": "customers", "toilets:wheelchair": "yes", "website": "https://www.greeneking.co.uk/pubs/oxfordshire/wig-and-pen", "wheelchair": "limited"}}, {"type": "node", "id": 659858775, "lat": 51.753761, "lon": -1.2594773, "tags": {"addr:city": "Oxford", "addr:housenumber": "5", "addr:postcode": "OX1 2AT", "addr:street": "George Street", "amenity": "restaurant", "branch": "Oxford", "brand": "ASK Italian", "brand:wikidata": "Q4807056", "brand:wikipedia": "en:ASK Italian", "check_date": "2025-06-15", "cuisine": "italian", "delivery": "yes", "diet:vegan": "yes", "diet:vegetarian": "yes", "fhrs:id": "268615", "level": "0", "name": "ASK Italian", "opening_hours": "Mo-Th 11:30-21:30; Fr,Su 11:30-22:00; Sa 11:30-23:00", "opening_hours:url": "https://www.askitalian.co.uk/italian/restaurants/oxford", "phone": "+44 1865 806766", "reservation": "yes", "reservation:website": "https://www.askitalian.co.uk/italian/restaurants/oxford", "source:addr:postcode": "FHRS Open Data", "takeaway": "yes", "website": "https://www.askitalian.co.uk/italian/restaurants/oxford", "wheelchair": "yes"}}, {"type": "node", "id": 659858777, "lat": 51.7538971, "lon": -1.2596433, "tags": {"addr:city": "Oxford", "addr:housenumber": "14-16", "addr:postcode": "OX1 2AF", "addr:street": "George Street", "amenity": "restaurant", "branch": "Oxford", "brand": "Bella Italia", "brand:wikidata": "Q4883362", "brand:wikipedia": "en:Bella Italia", "check_date": "2025-06-15", "cuisine": "italian", "delivery": "yes", "diet:vegan": "no", "diet:vegetarian": "yes", "fhrs:id": "268618", "name": "Bella Italia", "opening_hours": "Mo-Sa 11:30-22:00; Su 11:30-21:00", "opening_hours:url": "https://www.bellaitalia.co.uk/restaurants/oxford/george-street", "phone": "+44 1865 509729", "reservation": "yes", "reservation:website": "https://www.bellaitalia.co.uk/restaurants/oxford/george-street#booking", "source:addr:postcode": "FHRS Open Data", "takeaway": "yes", "website": "https://www.bellaitalia.co.uk/restaurants/oxford/george-street", "wheelchair": "yes"}}, {"type": "node", "id": 662951441, "lat": 51.7579729, "lon": -1.2637345, "tags": {"addr:housenumber": "30", "addr:postcode": "OX2 6AA", "addr:street": "Walton Street", "amenity": "bar", "email": "l.jbarlounge@hotmail.com", "fhrs:id": "1764806", "food": "yes", "name": "Love Jericho", "phone": "+44 1865 424631", "website": "https://lovejericho-oxford.co.uk/"}}, {"type": "node", "id": 662951454, "lat": 51.7580646, "lon": -1.2637535, "tags": {"addr:city": "Oxford", "addr:housenumber": "32", "addr:postcode": "OX2 6AA", "addr:street": "Walton Street", "amenity": "bar", "fhrs:id": "269431", "name": "Raoul's", "source:addr": "FHRS Open Data", "website": "https://www.raoulsbar.com/"}}, {"type": "node", "id": 662951456, "lat": 51.7580177, "lon": -1.2637435, "tags": {"addr:housenumber": "31", "addr:postcode": "OX2 6AA", "addr:street": "Walton Street", "amenity": "cafe", "fhrs:id": "701769", "food": "yes", "name": "Opera Cafe", "outdoor_seating": "yes"}}, {"type": "node", "id": 663641329, "lat": 51.7777271, "lon": -1.2646641, "tags": {"addr:city": "Oxford", "addr:housenumber": "260", "addr:postcode": "OX2 7DX", "addr:street": "Banbury Road", "alt_name": "Joes Bar And Grill", "amenity": "bar", "fhrs:id": "268374", "food": "yes", "name": "Joe's", "phone": "+44 1865 554484", "source": "photograph", "source:addr": "FHRS Open Data", "wheelchair": "yes"}}, {"type": "node", "id": 663641334, "lat": 51.7785283, "lon": -1.2656546, "tags": {"addr:city": "Oxford", "addr:housename": "Suffolk House", "addr:housenumber": "263-265", "addr:postcode": "OX2 7HN", "addr:street": "Banbury Road", "addr:unit": "Unit 9", "brand:wikidata": "Q13218434", "fhrs:id": "441855", "name": "Sainsbury's Local", "operator": "Sainsbury's Supermarkets Ltd", "shop": "supermarket", "source": "local_knowledge", "source:addr": "FHRS Open Data", "wheelchair": "yes"}}, {"type": "node", "id": 663653790, "lat": 51.7767209, "lon": -1.2648214, "tags": {"addr:city": "Oxford", "addr:housenumber": "215", "addr:postcode": "OX2 7HQ", "addr:street": "Banbury Road", "amenity": "restaurant", "check_date": "2025-06-15", "cuisine": "brunch;european;british", "delivery": "yes", "fhrs:id": "1814021", "name": "Kitchen Food Company", "opening_hours": "We-Th 10:00-12:00; Fr-Sa 10:00-14:30; Su 10:00-15:00", "opening_hours:url": "https://www.kitchenfoodco.co.uk/", "phone": "+44 1865 511149", "reservation": "no", "takeaway": "yes", "website": "https://www.kitchenfoodco.co.uk/"}}, {"type": "node", "id": 663653792, "lat": 51.7760339, "lon": -1.2645545, "tags": {"addr:city": "Oxford", "addr:housenumber": "197", "addr:postcode": "OX2 7AR", "addr:street": "Banbury Road", "amenity": "restaurant", "cuisine": "chinese", "delivery": "yes", "fhrs:id": "268366", "name": "XI'AN", "opening_hours": "Tu-Su 17:00-21:30", "opening_hours:url": "https://www.xianoxford.com/location", "phone": "+44 7599 699796", "reservation": "yes", "reservation:website": "https://www.xianoxford.com/reservations-1", "takeaway": "yes", "website": "https://www.xianoxford.com/", "wheelchair": "yes"}}, {"type": "node", "id": 663653793, "lat": 51.7759342, "lon": -1.2645155, "tags": {"addr:city": "Oxford", "addr:housenumber": "193", "addr:postcode": "OX2 7AR", "addr:street": "Banbury Road", "amenity": "restaurant", "cuisine": "indian", "delivery": "yes", "fhrs:id": "268684", "name": "Spice Lounge", "opening_hours": "Mo-Su 17:30-22:30", "opening_hours:url": "https://www.spiceloungeoxford.co.uk/contact", "phone": "+44 1865 510071", "reservation": "yes", "reservation:website": "https://www.spiceloungeoxford.co.uk/reservation", "source:addr:postcode": "FHRS Open Data", "takeaway": "yes", "website": "https://www.spiceloungeoxford.co.uk/", "wheelchair": "no"}}, {"type": "node", "id": 663653794, "lat": 51.7763786, "lon": -1.2647426, "tags": {"addr:city": "Oxford", "addr:housenumber": "205", "addr:postcode": "OX2 7HQ", "addr:street": "Banbury Road", "amenity": "cafe", "brand": "Costa", "brand:wikidata": "Q608845", "brand:wikipedia": "en:Costa Coffee", "cuisine": "coffee_shop", "fhrs:id": "268783", "name": "Costa", "opening_hours": "Mo-Fr 06:30-20:00; Sa 06:30-19:00; Su 07:00-19:30", "source": "photograph", "source:addr": "FHRS Open Data", "takeaway": "yes", "wheelchair": "limited"}}, {"type": "node", "id": 663653801, "lat": 51.7774874, "lon": -1.2651708, "tags": {"addr:city": "Oxford", "addr:housenumber": "239A", "addr:postcode": "OX2 7HN", "addr:street": "Banbury Road", "amenity": "cafe", "fhrs:id": "268368", "food": "yes", "name": "Taylor's", "opening_hours": "Mo-Sa 07:15-17:30; Su 09:00-17:00", "source": "photograph", "source:addr": "FHRS Open Data"}}, {"type": "node", "id": 663653802, "lat": 51.7779079, "lon": -1.2653369, "tags": {"addr:city": "Oxford", "addr:housenumber": "253", "addr:postcode": "OX2 7HN", "addr:street": "Banbury Road", "amenity": "restaurant", "check_date": "2025-06-15", "contact:facebook": "https://www.facebook.com/LBsLebaneseCuisine/", "cuisine": "lebanese", "delivery": "yes", "email": "lbscatering95@yahoo.co.uk", "fhrs:id": "268372", "name": "LB's", "opening_hours": "Mo-Sa 08:00-15:30", "opening_hours:url": "https://www.facebook.com/LBsLebaneseCuisine/", "phone": "+44 1865 311660", "reservation": "no", "takeaway": "yes"}}, {"type": "node", "id": 663987574, "lat": 51.7781364, "lon": -1.2672446, "tags": {"addr:housenumber": "38", "addr:postcode": "OX2 7JN", "addr:street": "South Parade", "amenity": "bar", "fhrs:id": "1683628", "level": "0", "name": "bia.", "outdoor_seating": "yes", "wheelchair": "limited"}}, {"type": "node", "id": 663987576, "lat": 51.7785192, "lon": -1.2659879, "tags": {"addr:city": "Oxford", "addr:housename": "Suffolk House", "addr:housenumber": "263-265", "addr:postcode": "OX2 7HN", "addr:street": "Banbury Road", "addr:unit": "19", "amenity": "restaurant", "check_date": "2025-06-15", "cuisine": "chinese;malaysian;asian", "delivery": "yes", "fhrs:id": "1519430", "name": "Kopitiam", "opening_hours": "Tu-Th,Su 11:00-22:00; Fr-Sa 11:00-22:30", "opening_hours:url": "https://kopitiamoxford.co.uk/", "phone": "+44 1865 454388", "reservation": "no", "source:addr": "FHRS Open Data", "takeaway": "yes", "website": "https://kopitiamoxford.co.uk/"}}, {"type": "node", "id": 663987577, "lat": 51.7805393, "lon": -1.2664859, "tags": {"addr:city": "Oxford", "addr:housenumber": "283", "addr:postcode": "OX2 7JF", "addr:street": "Banbury Road", "amenity": "restaurant", "check_date": "2025-06-15", "cuisine": "oriental;asian", "delivery": "no", "fhrs:id": "731309", "name": "New Dancing Dragon", "opening_hours": "Mo-Th 12:00-15:00,17:30-23:00; Fr-Sa 12:00-15:00,17:30-23:30; Su 12:00-15:00,17:30-22:30", "opening_hours:url": "https://newdancingdragon.co.uk/", "phone": "+44 1865 554475", "reservation": "no", "takeaway": "yes", "website": "https://newdancingdragon.co.uk/"}}, {"type": "node", "id": 728342880, "lat": 51.7489465, "lon": -1.2413731, "tags": {"addr:city": "Oxford", "addr:housenumber": "56-60", "addr:postcode": "OX4 1JB", "addr:street": "Cowley Road", "amenity": "restaurant", "cuisine": "indian;curry;south_indian", "delivery": "yes", "fhrs:id": "1664074", "name": "Dosa Darlings", "opening_hours": "Mo-Sa 12:00-22:00; Su 12:00-21:00", "opening_hours:url": "https://www.dosadarlings.com/", "phone": "+44 1865 602040", "reservation": "yes", "reservation:website": "https://www.sevenrooms.com/explore/dosadarlings/reservations/create/search/", "source:addr": "FHRS Open Data", "takeaway": "yes", "website": "https://www.dosadarlings.com/"}}, {"type": "node", "id": 745747211, "lat": 51.7841832, "lon": -1.2902405, "tags": {"addr:city": "Oxford", "addr:housenumber": "82", "addr:postcode": "OX2 8NY", "addr:street": "Godstow Road", "fhrs:id": "1534509", "name": "Port Meadow Convenience Store", "shop": "convenience"}}, {"type": "node", "id": 746814170, "lat": 51.7205573, "lon": -1.201897, "tags": {"addr:housenumber": "98", "fhrs:id": "1768876", "name": "Region To Season", "shop": "convenience"}}, {"type": "node", "id": 746814187, "lat": 51.7204576, "lon": -1.2017527, "tags": {"addr:city": "Oxford", "addr:housenumber": "102-104", "addr:postcode": "OX4 6HS", "addr:street": "Blackbird Leys Road", "brand": "Nisa Local", "brand:wikidata": "Q16999069", "name": "Nisa Local", "shop": "convenience"}}, {"type": "node", "id": 746814212, "lat": 51.7202582, "lon": -1.2014684, "tags": {"addr:city": "Oxford", "addr:housenumber": "110", "addr:postcode": "OX4 6HS", "addr:street": "Blackbird Leys Road", "amenity": "fast_food", "cuisine": "pizza;burger;kebab;chicken;fried_chicken", "fhrs:id": "1201126", "name": "Jake's", "opening_hours": "Mo-Sa 11:30-23:00; Su 14:00-23:00", "operator": "Jake's Takeaway", "phone": "+44 1865 45 41 41", "website": "https://www.jakestakeaway.co.uk/"}}, {"type": "node", "id": 747408894, "lat": 51.7483339, "lon": -1.2390358, "tags": {"addr:city": "Oxford", "addr:housenumber": "110", "addr:postcode": "OX4 1JE", "addr:street": "Cowley Road", "amenity": "restaurant", "check_date": "2025-06-15", "cuisine": "indian", "delivery": "yes", "fhrs:id": "1524692", "name": "Majliss", "opening_hours": "Mo-Th 17:30-21:30; Fr-Sa 17:30-22:00", "opening_hours:url": "https://www.majliss.co.uk/information", "phone": "+44 1865 726728", "reservation": "yes", "reservation:website": "https://www.google.com/maps/reserve/v/dine/c/yb_dbLIqqpc?source=pa&opi=89978449&hl=en-GB&gei=-ZtOaIfWFNmlhbIPxtfBsAg&sourceurl=https%3A%2F%2Fwww.google.com%2Fsearch%3Fclient%3Dfirefox-b-d%26q%3Dmajliss%2Bdojo%2Breservation%2Boxford&ihs=3", "takeaway": "yes", "website": "https://www.majliss.co.uk/"}}, {"type": "node", "id": 747744672, "lat": 51.7535353, "lon": -1.2592255, "tags": {"addr:city": "Oxford", "addr:housenumber": "8", "addr:postcode": "OX1 2DU", "addr:street": "St Michael's Street", "amenity": "fast_food", "check_date": "2024-04-21", "cuisine": "mexican", "fhrs:id": "1796653", "name": "Mission Burrito", "opening_hours": "Mo-We 11:00-22:00; Th-Sa 11:00-23:00; Su 11:00-22:00", "phone": "+44 1865 202016", "website": "https://missionburrito.co.uk/stores/oxford-cornmarket/"}}, {"type": "node", "id": 750598991, "lat": 51.7535519, "lon": -1.2591152, "tags": {"addr:city": "Oxford", "addr:housenumber": "6-8", "addr:postcode": "OX1 2DU", "addr:street": "St Michael's Street", "amenity": "restaurant", "cuisine": "chinese;noodle", "delivery": "no", "fhrs:id": "1738495", "name": "Three Thousand Restaurant", "opening_hours": "Mo-Su 11:30-15:00,17:00-21:00", "reservation": "no", "takeaway": "no", "wheelchair": "limited"}}, {"type": "node", "id": 750598992, "lat": 51.7550741, "lon": -1.2518272, "tags": {"addr:city": "Oxford", "addr:housenumber": "24", "addr:street": "Holywell Street", "amenity": "fast_food", "cuisine": "sandwich", "fhrs:id": "268752", "name": "The Alternative Tuck Shop", "wikidata": "Q26379542"}}, {"type": "node", "id": 767961689, "lat": 51.750794, "lon": -1.2591569, "tags": {"amenity": "cafe", "changing_table": "yes", "cuisine": "bar;coffee_shop", "fhrs:id": "1208427", "internet_access": "yes", "internet_access:fee": "no", "name": "Modern Art Oxford Caf\u00e9", "operator": "Modern Art Oxford", "outdoor_seating": "no", "toilets": "yes", "website": "https://modernartoxford.org.uk/visit/cafe/", "wheelchair": "yes"}}, {"type": "node", "id": 769084322, "lat": 51.7940637, "lon": -1.2840969, "tags": {"addr:city": "Oxford", "addr:housename": "Welcome Break Peartree Roundabout", "addr:postcode": "OX2 8JZ", "addr:street": "Woodstock Road", "brand": "Little Waitrose", "brand:wikidata": "Q771734", "brand:wikipedia": "en:Waitrose & Partners", "fhrs:id": "269257", "gluten_free": "yes", "name": "Little Waitrose", "operator": "Welcome Break", "phone": "+44 1865 514268", "shop": "convenience", "source:addr": "FHRS Open Data", "source:phone": "receipt", "website": "https://www.waitrose.com/find-a-store/oxford-peartree-services", "wheelchair": "yes"}}, {"type": "node", "id": 769084323, "lat": 51.7942256, "lon": -1.2840934, "tags": {"addr:city": "Oxford", "addr:housename": "Welcome Break Peartree Roundabout", "addr:postcode": "OX2 8JZ", "addr:street": "Woodstock Road", "amenity": "cafe", "brand": "Starbucks", "brand:wikidata": "Q37158", "brand:wikipedia": "en:Starbucks", "cuisine": "coffee_shop", "fhrs:id": "269256", "gluten_free": "yes", "indoor_seating": "yes", "name": "Starbucks", "official_name": "Starbucks Coffee", "operator": "Starbucks Coffee", "outdoor_seating": "yes", "phone": "+44 1865 514268", "takeaway": "yes", "website": "https://www.starbucks.com/store-locator/store/19056/oxford-peartree-welcome-brea-a-34-a-40-a-44-peartree-interchange-peartree-round", "wheelchair": "yes"}}, {"type": "node", "id": 771823453, "lat": 51.7493172, "lon": -1.2008654, "tags": {"addr:city": "Oxford", "addr:housenumber": "5", "addr:postcode": "OX3 8RA", "addr:street": "Atkyns Road", "addr:suburb": "Headington", "amenity": "cafe", "name": "Franca's Cafe"}}, {"type": "node", "id": 771823456, "lat": 51.749283, "lon": -1.2008162, "tags": {"addr:city": "Oxford", "addr:housenumber": "7", "addr:postcode": "OX3 8RA", "addr:street": "Atkyns Road", "addr:suburb": "Headington", "amenity": "fast_food", "fhrs:id": "1019659", "name": "Alice's Fish & Chips"}}, {"type": "node", "id": 771823480, "lat": 51.7490973, "lon": -1.2005365, "tags": {"addr:city": "Oxford", "addr:housenumber": "17-19", "addr:postcode": "OX3 8RA", "addr:street": "Atkyns Road", "addr:suburb": "Headington", "brand": "Your Coop Food", "brand:wikidata": "Q121084548", "fhrs:id": "268347", "name": "Your Coop Food", "opening_hours": "Mo-Su 07:00-22:00", "operator": "Midcounties Co-operative", "operator:wikidata": "Q6841138", "shop": "convenience"}}, {"type": "node", "id": 802173340, "lat": 51.7694615, "lon": -1.2537937}, {"type": "node", "id": 802173373, "lat": 51.7692043, "lon": -1.2536444}, {"type": "node", "id": 817350806, "lat": 51.7798535, "lon": -1.2989918}, {"type": "node", "id": 817350849, "lat": 51.7798823, "lon": -1.2991806}, {"type": "node", "id": 830214883, "lat": 51.7769535, "lon": -1.2475224}, {"type": "node", "id": 830214887, "lat": 51.7770469, "lon": -1.2476097}, {"type": "node", "id": 830214897, "lat": 51.7769653, "lon": -1.2472082}, {"type": "node", "id": 830214916, "lat": 51.7771101, "lon": -1.2473012}, {"type": "node", "id": 840481009, "lat": 51.7522519, "lon": -1.2599867, "tags": {"addr:city": "Oxford", "addr:housenumber": "18", "addr:postcode": "OX1 2DW", "addr:street": "New Inn Hall Street", "fhrs:id": "1603536", "name": "Jiamart Chinese Supermarket", "shop": "convenience"}}, {"type": "node", "id": 840484738, "lat": 51.7536984, "lon": -1.2579996, "tags": {"addr:city": "Oxford", "addr:housenumber": "1", "addr:postcode": "OX1 3DA", "addr:street": "Ship Street", "amenity": "restaurant", "check_date": "2025-06-15", "cuisine": "european;british", "delivery": "no", "fhrs:id": "999835", "name": "No.1 Ship Street", "opening_hours": "Mo-Sa 12:00-22:00", "opening_hours:url": "https://www.no1shipstreet.com/contact", "phone": "+44 1865 806637", "reservation": "yes", "reservation:website": "https://www.opentable.co.uk/restref/client/?restref=140217&lang=en&corrid=e014a42a-860b-4076-af8f-a43fa4a2e173", "source:addr": "FHRS Open Data", "takeaway": "no", "website": "https://www.no1shipstreet.com/"}}, {"type": "node", "id": 840486955, "lat": 51.7551097, "lon": -1.2540507, "tags": {"addr:city": "Oxford", "addr:housenumber": "24", "addr:postcode": "OX1 3SB", "addr:street": "Holywell Street", "check_date": "2024-04-21", "fhrs:id": "268753", "name": "Tuck Shop", "shop": "convenience", "source:addr": "FHRS Open Data", "wheelchair": "no"}}, {"type": "node", "id": 848252264, "lat": 51.7486624, "lon": -1.2567873, "tags": {"addr:city": "Oxford", "addr:housenumber": "75", "addr:postcode": "OX1 1RA", "addr:street": "St Aldate's", "branch": "Oxford St Aldates Express", "brand": "Tesco Express", "brand:wikidata": "Q98456772", "check_date": "2025-02-10", "contact:website": "https://www.tesco.com/store-locator/oxford/75-st-aldates", "fhrs:id": "269248", "name": "Tesco Express", "opening_hours": "Mo-Su 07:00-23:00", "phone": "+44 845 6746449", "ref": "6167", "shop": "convenience"}}, {"type": "node", "id": 855294147, "lat": 51.7216665, "lon": -1.2017664}, {"type": "node", "id": 855294159, "lat": 51.7173952, "lon": -1.1969002}, {"type": "node", "id": 855294188, "lat": 51.7217575, "lon": -1.2019756}, {"type": "node", "id": 855294290, "lat": 51.7175487, "lon": -1.1969509}, {"type": "node", "id": 855294327, "lat": 51.7173398, "lon": -1.1973375}, {"type": "node", "id": 855294399, "lat": 51.7214431, "lon": -1.2020198}, {"type": "node", "id": 855294466, "lat": 51.7215341, "lon": -1.202229}, {"type": "node", "id": 855294498, "lat": 51.7174559, "lon": -1.1973753}, {"type": "node", "id": 855294522, "lat": 51.7175726, "lon": -1.1972963}, {"type": "node", "id": 940550166, "lat": 51.7676127, "lon": -1.2691379}, {"type": "node", "id": 940550184, "lat": 51.7676035, "lon": -1.2689771}, {"type": "node", "id": 940550335, "lat": 51.7677602, "lon": -1.2689942}, {"type": "node", "id": 940550395, "lat": 51.7675894, "lon": -1.2689721}, {"type": "node", "id": 940550531, "lat": 51.767797, "lon": -1.2690072}, {"type": "node", "id": 940550712, "lat": 51.7676648, "lon": -1.2691563}, {"type": "node", "id": 940550923, "lat": 51.7678015, "lon": -1.2689739}, {"type": "node", "id": 940551083, "lat": 51.7676663, "lon": -1.2691454}, {"type": "node", "id": 940551517, "lat": 51.7675709, "lon": -1.2691086}, {"type": "node", "id": 940551552, "lat": 51.7676146, "lon": -1.2691242}, {"type": "node", "id": 940551808, "lat": 51.7677363, "lon": -1.2691702}, {"type": "node", "id": 942521451, "lat": 51.7626764, "lon": -1.2664362}, {"type": "node", "id": 942521642, "lat": 51.7627448, "lon": -1.2664818}, {"type": "node", "id": 942521806, "lat": 51.7627277, "lon": -1.2665488}, {"type": "node", "id": 942521875, "lat": 51.7628242, "lon": -1.2666776}, {"type": "node", "id": 942521942, "lat": 51.7628383, "lon": -1.2666226}, {"type": "node", "id": 942521990, "lat": 51.7626452, "lon": -1.2665581}, {"type": "node", "id": 957075942, "lat": 51.7603546, "lon": -1.2083986}, {"type": "node", "id": 957076082, "lat": 51.7606075, "lon": -1.208658}, {"type": "node", "id": 958116613, "lat": 51.7605623, "lon": -1.2109538}, {"type": "node", "id": 958116644, "lat": 51.7607118, "lon": -1.2103866}, {"type": "node", "id": 958116655, "lat": 51.7602915, "lon": -1.2094179}, {"type": "node", "id": 958116702, "lat": 51.7603248, "lon": -1.209298}, {"type": "node", "id": 958116928, "lat": 51.7604298, "lon": -1.2095184}, {"type": "node", "id": 958116976, "lat": 51.7608, "lon": -1.2103286}, {"type": "node", "id": 958117126, "lat": 51.7609853, "lon": -1.2103255}, {"type": "node", "id": 972054829, "lat": 51.7528606, "lon": -1.253455, "tags": {"addr:city": "Oxford", "addr:postcode": "OX1 4AH", "addr:street": "Radcliffe Square", "amenity": "cafe", "check_date": "2022-10-16", "diet:vegan": "yes", "diet:vegetarian": "yes", "fhrs:id": "268737", "indoor_seating": "yes", "name": "The Vaults & Garden Caf\u00e9", "opening_hours": "Mo-Su 9:30-16:30", "outdoor_seating": "yes", "payment:credit_cards": "yes", "payment:debit_cards": "yes", "phone": "+44 1865 279 112", "toilets": "yes", "toilets:wheelchair": "yes", "website": "http://www.vaultsandgarden.com/", "wheelchair": "yes"}}, {"type": "node", "id": 979455260, "lat": 51.7505132, "lon": -1.2445209, "tags": {"addr:housename": "Waynflete Building", "addr:housenumber": "1-8", "addr:postcode": "OX4 1DS", "addr:street": "St Clements Street", "brand": "Sainsbury's Local", "brand:wikidata": "Q13218434", "brand:wikipedia": "en:Sainsbury's Local", "fhrs:id": "395980", "name": "Sainsbury's Local", "opening_hours": "Mo-Su 07:00-23:00", "phone": "+44 1865 448320", "shop": "convenience", "website": "https://stores.sainsburys.co.uk/4938/oxford-st-clements-local"}}, {"type": "node", "id": 1024074467, "lat": 51.7221747, "lon": -1.2317877}, {"type": "node", "id": 1024074683, "lat": 51.7213941, "lon": -1.2314583}, {"type": "node", "id": 1057696774, "lat": 51.7573403, "lon": -1.2594313}, {"type": "node", "id": 1057696860, "lat": 51.7574588, "lon": -1.2591839}, {"type": "node", "id": 1057696894, "lat": 51.7574168, "lon": -1.2593804}, {"type": "node", "id": 1057697084, "lat": 51.7573579, "lon": -1.2593492}, {"type": "node", "id": 1057697119, "lat": 51.7574106, "lon": -1.2591569}, {"type": "node", "id": 1057697442, "lat": 51.7573988, "lon": -1.259464}, {"type": "node", "id": 1057697446, "lat": 51.7573681, "lon": -1.2593549}, {"type": "node", "id": 1083936939, "lat": 51.7529595, "lon": -1.2644673}, {"type": "node", "id": 1083936950, "lat": 51.7528692, "lon": -1.2646529}, {"type": "node", "id": 1083937349, "lat": 51.7528681, "lon": -1.2642922}, {"type": "node", "id": 1083937468, "lat": 51.7529248, "lon": -1.264267}, {"type": "node", "id": 1088414652, "lat": 51.7939668, "lon": -1.282873}, {"type": "node", "id": 1088415120, "lat": 51.7938735, "lon": -1.2828919}, {"type": "node", "id": 1088415176, "lat": 51.7939379, "lon": -1.2828583}, {"type": "node", "id": 1088415245, "lat": 51.7939547, "lon": -1.2829353}, {"type": "node", "id": 1088415466, "lat": 51.7938338, "lon": -1.2830966}, {"type": "node", "id": 1088415578, "lat": 51.7939262, "lon": -1.2829187}, {"type": "node", "id": 1110561388, "lat": 51.7465759, "lon": -1.2558386}, {"type": "node", "id": 1110561391, "lat": 51.7465579, "lon": -1.2558388}, {"type": "node", "id": 1110564283, "lat": 51.7468563, "lon": -1.2560013}, {"type": "node", "id": 1110564290, "lat": 51.7468563, "lon": -1.2559324}, {"type": "node", "id": 1132313468, "lat": 51.7546689, "lon": -1.2525568}, {"type": "node", "id": 1132313488, "lat": 51.7546493, "lon": -1.2530045}, {"type": "node", "id": 1132313505, "lat": 51.7546364, "lon": -1.2527457}, {"type": "node", "id": 1132313508, "lat": 51.7547694, "lon": -1.252819}, {"type": "node", "id": 1132313512, "lat": 51.7547175, "lon": -1.2529874}, {"type": "node", "id": 1132313517, "lat": 51.7546248, "lon": -1.2527486}, {"type": "node", "id": 1132313532, "lat": 51.7547594, "lon": -1.252715}, {"type": "node", "id": 1132313533, "lat": 51.7547029, "lon": -1.2528357}, {"type": "node", "id": 1132313540, "lat": 51.7546859, "lon": -1.2527334}, {"type": "node", "id": 1132313545, "lat": 51.7546196, "lon": -1.2525689}, {"type": "node", "id": 1135423160, "lat": 51.7524585, "lon": -1.2709416}, {"type": "node", "id": 1135423187, "lat": 51.7517485, "lon": -1.2713738}, {"type": "node", "id": 1135423190, "lat": 51.7517898, "lon": -1.2713143}, {"type": "node", "id": 1135423211, "lat": 51.751667, "lon": -1.27139}, {"type": "node", "id": 1135423226, "lat": 51.7517517, "lon": -1.271341}, {"type": "node", "id": 1135423249, "lat": 51.7516809, "lon": -1.2713935}, {"type": "node", "id": 1135423260, "lat": 51.7524639, "lon": -1.2708105}, {"type": "node", "id": 1135423265, "lat": 51.7517864, "lon": -1.2713498}, {"type": "node", "id": 1135423290, "lat": 51.7516844, "lon": -1.2713576}, {"type": "node", "id": 1135423298, "lat": 51.7518009, "lon": -1.2711992}, {"type": "node", "id": 1140848453, "lat": 51.7443189, "lon": -1.2011497}, {"type": "node", "id": 1140848499, "lat": 51.7443378, "lon": -1.2011981}, {"type": "node", "id": 1140848591, "lat": 51.744133, "lon": -1.2011521}, {"type": "node", "id": 1140848636, "lat": 51.7442018, "lon": -1.201006}, {"type": "node", "id": 1140848702, "lat": 51.744323, "lon": -1.2012009}, {"type": "node", "id": 1140848859, "lat": 51.7442679, "lon": -1.2013178}, {"type": "node", "id": 1140848894, "lat": 51.7443341, "lon": -1.2011462}, {"type": "node", "id": 1141444841, "lat": 51.7468998, "lon": -1.2031366}, {"type": "node", "id": 1141444857, "lat": 51.7469372, "lon": -1.2032852}, {"type": "node", "id": 1152686265, "lat": 51.7657014, "lon": -1.2872619}, {"type": "node", "id": 1152686277, "lat": 51.7659028, "lon": -1.2872221}, {"type": "node", "id": 1152686285, "lat": 51.765648, "lon": -1.2870978}, {"type": "node", "id": 1152686295, "lat": 51.7656909, "lon": -1.2873258}, {"type": "node", "id": 1152686297, "lat": 51.7657625, "lon": -1.2872967}, {"type": "node", "id": 1152686330, "lat": 51.7657274, "lon": -1.2871431}, {"type": "node", "id": 1152686347, "lat": 51.7656291, "lon": -1.2873393}, {"type": "node", "id": 1152686357, "lat": 51.7658591, "lon": -1.2874219}, {"type": "node", "id": 1152686380, "lat": 51.7657926, "lon": -1.2871591}, {"type": "node", "id": 1152686396, "lat": 51.7656815, "lon": -1.2873692},