{"version": 0.6, "generator": "Overpass API 0.7.62.7 375dc00a", "osm3s": {"timestamp_osm_base": "2025-06-20T21:41:02Z", "copyright": "The data included in this document is from www.openstreetmap.org. The data is made available under ODbL."}, "elements": [{"type": "node", "id": 21509246, "lat": 51.7899669, "lon": -1.2647397, "tags": {"addr:city": "Oxford", "addr:country": "GB", "addr:housenumber": "3", "addr:postcode": "OX2 8NE", "addr:street": "Kendall Crescent", "amenity": "post_office", "fhrs:id": "932827", "name": "Oxford Convenience Store", "opening_hours:post_office": "Mo-Fr 09:00-17:30; Sa 09:00-12:30", "ref:pol_id": "2339", "shop": "convenience"}}, {"type": "node", "id": 175707119, "lat": 51.7285342, "lon": -1.2184486}, {"type": "node", "id": 231413379, "lat": 51.7543112, "lon": -1.2614509, "tags": {"addr:city": "Oxford", "addr:housenumber": "100-101", "addr:postcode": "OX1 2DF", "addr:street": "Gloucester Green", "amenity": "restaurant", "breakfast": "no", "check_date": "2025-06-15", "contact:facebook": "https://www.facebook.com/100percent.pasta/", "contact:instagram": "https://www.instagram.com/100percent.pasta/", "contact:tiktok": "https://www.tiktok.com/@100percent.pasta", "contact:tripadvisor": "https://www.tripadvisor.com/Restaurant_Review-g186361-d27731314-Reviews-100_Pasta-Oxford_Oxfordshire_England.html", "cuisine": "pasta;italian", "delivery": "yes", "description": "The restaurant is closed on Christmas Eve, Christmas Day, New Year\u2019s Eve and New Year\u2019s Day. There is an opportunity to join a newsletter. There is also an option of 100% pasta experience -try 4 different italian pasta", "diet:gluten_free": "yes", "diet:vegan": "yes", "diet:vegetarian": "yes", "dinner": "no", "drink:beer": "yes", "drink:coffee": "yes", "drink:soft_drink": "yes", "drink:sparkling_wine": "yes", "drink:tea": "yes", "drink:wine": "yes", "email": "oxford@100percentpasta.com", "fhrs:id": "1726790", "level": "0", "lunch": "menu", "lunch:menu": "Mo-Fr 12:00-16:00", "name": "100% Pasta", "old_name": "Kaspa's", "opening_hours": "Mo-Su 12:00-22:00", "opening_hours:url": "https://www.100percentpasta.com/contact/", "phone": "+44 1865 602302", "reservation": "yes", "reservation:website": "https://100pasta.touchreservation.net/reservation", "takeaway": "no", "website": "https://www.100percentpasta.com/", "website:menu": "https://www.100percentpasta.com/wp-content/uploads/2025/04/100percent-pasta-menu.pdf", "wheelchair": "yes"}}, {"type": "node", "id": 249151792, "lat": 51.7270574, "lon": -1.1950243, "tags": {"addr:country": "GB", "addr:postcode": "OX4 6NF", "addr:street": "Watlington Road", "brand": "Lidl", "brand:wikidata": "Q151954", "brand:wikipedia": "en:Lidl", "fhrs:id": "1215459", "name": "Lidl", "shop": "supermarket", "website": "https://www.lidl.co.uk/s/en-GB/store-finder/oxford/oxfordshire/watlington-road/"}}, {"type": "node", "id": 251232416, "lat": 51.7545076, "lon": -1.2624617, "tags": {"addr:city": "Oxford", "addr:housename": "The Old School", "addr:postcode": "OX1 2DF", "addr:street": "Gloucester Green", "amenity": "restaurant", "branch": "Oxford", "brand": "Sichuan Grand", "breakfast": "no", "check_date": "2025-06-15", "contact:facebook": "https://www.facebook.com/Sichuangrandlondon/", "contact:instagram": "https://www.instagram.com/sichuangrand/?hl=en", "contact:tripadvisor": "https://www.tripadvisor.com/Restaurant_Review-g186361-d2646840-Reviews-or90-Sichuan_Grand-Oxford_Oxfordshire_England.html", "cuisine": "chinese", "delivery": "yes", "diet:vegetarian": "yes", "dinner": "no", "email": "sichuangrandholborninfo@gmail.com", "fhrs:id": "1292329", "lunch": "no", "name": "Sichuan Grand", "opening_hours": "Mo-Su 11:30-22:30", "opening_hours:url": "https://www.tripadvisor.co.uk/Restaurant_Review-g186361-d2646840-Reviews-Sichuan_Grand-Oxford_Oxfordshire_England.html", "phone": "+44 1865 791222", "reservation": "yes", "reservation:website": "http://sichuangrand.com/oxford", "takeaway": "no", "website": "http://sichuangrand.com/", "website:menu": "http://sichuangrand.com/menu"}}, {"type": "node", "id": 253265510, "lat": 51.7276786, "lon": -1.2002981, "tags": {"brand": "M&S Simply Food", "brand:wikidata": "Q714491", "brand:wikipedia": "en:Marks & Spencer", "check_date": "2024-07-21", "check_date:opening_hours": "2024-07-21", "contact:website": "https://www.marksandspencer.com/stores/oxford-cowley-road-simply-food-9996", "name": "M&S Simply Food", "opening_hours": "Mo-Sa 08:00-20:00; Su 10:30-16:30", "shop": "supermarket"}}, {"type": "node", "id": 255629368, "lat": 51.7174232, "lon": -1.1969647, "tags": {"addr:city": "Oxford", "addr:postcode": "OX4 7EX", "addr:street": "Dunnock Way", "addr:unit": "2", "amenity": "restaurant", "breakfast": "no", "check_date": "2025-06-15", "contact:facebook": "https://www.facebook.com/pages/Chillies%20Indian%20Takeaway/1697586057167832/", "contact:tripadvisor": "https://www.tripadvisor.co.uk/Restaurant_Review-g186361-d8618838-Reviews-Chillies_Indian_Takeaway-Oxford_Oxfordshire_England.html", "cuisine": "indian", "delivery": "yes", "diet:vegetarian": "yes", "dinner": "no", "drink:cola": "yes", "fhrs:id": "268782", "lunch": "no", "name": "Chillies Indian Takeaway", "opening_hours": "Mo-Su 17:00-23:00", "opening_hours:url": "https://chilliesindianoxford.co.uk/#contact", "phone": "+44 1865 775849", "reservation": "no", "source": "photograph", "takeaway": "yes", "website": "https://chilliesindianoxford.co.uk/", "website:menu": "https://chilliesindianoxford.co.uk/#menu"}}, {"type": "node", "id": 256628775, "lat": 51.7245792, "lon": -1.1989314, "tags": {"brand": "Best-one", "brand:wikidata": "Q4896532", "contact:website": "https://stores.best-one.co.uk/best-one-e047c533a573", "fhrs:id": "268350", "name": "Best-one", "shop": "convenience", "source": "local_knowledge"}}, {"type": "node", "id": 257957827, "lat": 51.7626136, "lon": -1.1949038}, {"type": "node", "id": 258870938, "lat": 51.7174706, "lon": -1.1972626}, {"type": "node", "id": 259084607, "lat": 51.7603499, "lon": -1.2079614}, {"type": "node", "id": 259190443, "lat": 51.7534515, "lon": -1.2633304, "tags": {"addr:city": "Oxford", "addr:housenumber": "77-79", "addr:postcode": "OX1 2BQ", "addr:street": "George Street", "amenity": "restaurant", "branch": "Oxford - George Street", "brand": "Nando's", "brand:wikidata": "Q3472954", "brand:wikipedia": "en:Nando's", "changing_table": "yes", "check_date": "2025-06-15", "contact:facebook": "https://www.facebook.com/Nandos.UnitedKingdom", "contact:instagram": "https://www.instagram.com/nandosuk/", "contact:tripadvisor": "https://www.tripadvisor.co.uk/Restaurant_Review-g186361-d2001534-Reviews-Nando_s_Oxford_George_Street-Oxford_Oxfordshire_England.html", "contact:twitter": "https://x.com/NandosUK", "contact:youtube": "https://www.youtube.com/channel/UCVgYYZS_7RE-Hh9dFVMo8Rw", "cuisine": "chicken;portuguese", "delivery": "yes", "diet:vegan": "yes", "diet:vegetarian": "yes", "drink:beer": "yes", "drink:cola": "yes", "drink:soft_drink": "yes", "drink:tea": "yes", "drink:wine": "yes", "email": "hello@nandos.co.uk", "fhrs:id": "269026", "internet_access": "yes", "name": "Nando's", "opening_hours": "Mo-Fr,Su 11:00-22:00; Sa 10:00-22:00", "opening_hours:url": "https://www.nandos.co.uk/restaurants/oxford-george-street", "phone": "+44 1865 727465", "reservation": "no", "takeaway": "yes", "website": "https://www.nandos.co.uk/restaurants/oxford-george-street", "website:menu": "https://www.nandos.co.uk/food/menu/", "wheelchair": "no"}}, {"type": "node", "id": 263027773, "lat": 51.733508, "lon": -1.2186508}, {"type": "node", "id": 263027785, "lat": 51.7335466, "lon": -1.2186718}, {"type": "node", "id": 263027786, "lat": 51.733396, "lon": -1.2193945}, {"type": "node", "id": 266708484, "lat": 51.7782497, "lon": -1.2655509, "tags": {"addr:city": "Oxford", "addr:housename": "Suffolk House", "addr:housenumber": "263-265", "addr:postcode": "OX2 7HN", "addr:street": "Banbury Road", "addr:unit": "Unit 5", "brand": "Tesco Express", "brand:wikidata": "Q98456772", "contact:website": "https://www.tesco.com/store-locator/oxford/263-banbury-rd", "fhrs:id": "268375", "name": "Tesco Express", "opening_hours": "Mo-Su 06:00-11:00", "shop": "supermarket", "source": "photograph;local_knowledge", "source:addr": "FHRS Open Data", "wheelchair": "yes"}}, {"type": "node", "id": 302831171, "lat": 51.7218381, "lon": -1.2333801}, {"type": "node", "id": 302831172, "lat": 51.7215338, "lon": -1.233244}, {"type": "node", "id": 302831173, "lat": 51.7216119, "lon": -1.2327168}, {"type": "node", "id": 302831174, "lat": 51.7212472, "lon": -1.2325582}, {"type": "node", "id": 302831175, "lat": 51.7213536, "lon": -1.2319361}, {"type": "node", "id": 302831177, "lat": 51.7213192, "lon": -1.2319234}, {"type": "node", "id": 302831184, "lat": 51.7219728, "lon": -1.2330453}, {"type": "node", "id": 302831185, "lat": 51.7218934, "lon": -1.233021}, {"type": "node", "id": 312915804, "lat": 51.7544669, "lon": -1.2592052, "tags": {"addr:postcode": "OX1 3AD", "addr:street": "Magdalen Street", "brand": "Tesco Express", "brand:wikidata": "Q98456772", "contact:website": "https://www.tesco.com/store-locator/oxford/magdalen-st", "fhrs:id": "269253", "name": "Tesco Express", "not:shop": "convenience", "opening_hours": "Mo-Sa 07:00-24:00; Su 11:00-17:00", "phone": "+44 845 0269682", "shop": "supermarket", "wheelchair": "limited"}}, {"type": "node", "id": 312915805, "lat": 51.7542945, "lon": -1.2591266, "tags": {"addr:housenumber": "7", "addr:postcode": "OX1 3AD", "addr:street": "Magdalen Street", "brand": "Sainsbury's Local", "brand:wikidata": "Q13218434", "brand:wikipedia": "en:Sainsbury's Local", "check_date": "2025-02-09", "fhrs:id": "395979", "name": "Sainsbury's Local", "opening_hours": "Mo-Su 07:00-22:00", "shop": "convenience", "website": "https://stores.sainsburys.co.uk/4049/northgate-local", "wheelchair": "yes"}}, {"type": "node", "id": 313066974, "lat": 51.7544039, "lon": -1.2601659, "tags": {"addr:city": "Oxford", "addr:housenumber": "11-12 Friars Entry", "addr:postcode": "OX1 2BY", "addr:street": "Magdalen Street", "amenity": "restaurant", "branch": "Oxford", "brand": "Turtle Bay", "brand:wikidata": "Q127601863", "brand:wikipedia": "https://en.wikipedia.org/wiki/Turtle_Bay_(restaurant)", "breakfast": "no", "check_date": "2025-06-15", "contact:facebook": "https://www.facebook.com/TurtleBayRestaurants", "contact:instagram": "https://www.instagram.com/turtlebayuk/", "contact:linkedin": "https://www.linkedin.com/company/turtle-bays-restaurants/", "contact:tiktok": "https://www.tiktok.com/@turtlebayuk", "contact:youtube": "https://www.youtube.com/user/TurtleBay2012", "cuisine": "caribbean", "delivery": "yes", "description": "There is an opportunity to join a newsletter. There is also an option of Bottomless Brunch. There are also HappyHour every day and Late Night Beats & Eats", "diet:vegan": "yes", "diet:vegetarian": "yes", "dinner": "no", "drink:beer": "yes", "drink:soft_drink": "yes", "drink:sparkling_wine": "yes", "drink:wine": "yes", "email": "feedback@turtlebay.co.uk", "fhrs:id": "836585", "internet_access": "yes", "lunch": "no", "name": "Turtle Bay", "opening_hours": "Mo-We 11:00-22:30; Th 11:00-23:00; Fr 11:00-24:00; Sa 10:00-24:00; Su 11:00-22:00", "opening_hours:url": "https://turtlebay.co.uk/restaurants/oxford", "outdoor_seating": "yes", "phone": "+44 1865 242141", "reservation": "yes", "reservation:website": "https://turtlebay.co.uk/restaurants/oxford", "takeaway": "yes", "website": "https://turtlebay.co.uk/restaurants/oxford", "website:menu": "https://turtlebay.co.uk/menu/?location=oxford", "wheelchair": "yes"}}, {"type": "node", "id": 320608434, "lat": 51.7550003, "lon": -1.2510659, "tags": {"addr:city": "Oxford", "addr:housenumber": "15", "addr:postcode": "OX1 3SA", "addr:street": "Holywell Street", "alt_name": "Edamame", "amenity": "restaurant", "breakfast": "no", "check_date": "2025-06-15", "contact:tripadvisor": "https://www.tripadvisor.co.uk/Restaurant_Review-g186361-d733780-Reviews-Edamame-Oxford_Oxfordshire_England.html", "contact:twitter": "https://x.com/edamameoxford", "cuisine": "japanese;sushi", "delivery": "no", "description": "Sushi menu Th 17:00-20:30", "diet:gluten_free": "yes", "diet:vegan": "yes", "diet:vegetarian": "yes", "dinner": "Fr-Sa 17:00-20:30", "drink:beer": "yes", "drink:cola": "yes", "drink:soft_drink": "yes", "drink:wine": "yes", "fhrs:id": "268751", "lunch": "We-Sa 11:30-14:30;Su 12:00-15:30", "name": "Edamam\u00e9", "opening_hours": "We 11:30-14:30; Th-Sa 11:30-14:30,17:00-20:30; Su 12:00-15:30", "opening_hours:url": "https://www.edamame.co.uk/", "payment:cash": "yes", "payment:credit_cards": "yes", "payment:debit_cards": "yes", "phone": "+44 1865 246916", "reservation": "no", "takeaway": "yes", "website": "https://www.edamame.co.uk/", "website:menu": "https://www.edamame.co.uk/our-menus"}}, {"type": "node", "id": 322572592, "lat": 51.7340169, "lon": -1.2497771}, {"type": "node", "id": 322721066, "lat": 51.7471877, "lon": -1.2345527, "tags": {"addr:city": "Oxford", "addr:housenumber": "187-189", "addr:postcode": "OX4 1UT", "addr:street": "Cowley Road", "alt_name": "Red Star Noodle Bar", "amenity": "restaurant", "breakfast": "no", "check_date": "2025-06-15", "contact:facebook": "https://www.facebook.com/pages/Red%20Star%20Noodle%20Bar/625017284252520/", "contact:tripadvisor": "https://www.tripadvisor.co.uk/Restaurant_Review-g186361-d787839-Reviews-Red_Star_Noodle_Bar-Oxford_Oxfordshire_England.html", "contact:yelp": "https://www.yelp.co.uk/biz/red-star-noodle-bar-oxford", "cuisine": "asian;chinese;noodle", "delivery": "yes", "diet:vegetarian": "yes", "dinner": "no", "email": "info@redstaroxford.co.uk", "fhrs:id": "1548707", "lunch": "no", "name": "Red Star Chinese Restaurant", "opening_hours": "Mo-Su 12:00-23:00", "opening_hours:url": "https://redstaroxford.co.uk/contact-en/", "phone": "+44 1865 251248", "reservation": "yes", "takeaway": "yes", "website": "https://redstaroxford.co.uk/", "website:menu": "https://redstaroxford.co.uk/menu-in-english/"}}, {"type": "node", "id": 322721238, "lat": 51.7487156, "lon": -1.2404246, "tags": {"addr:city": "Oxford", "addr:housenumber": "80", "addr:postcode": "OX4 1JB", "addr:street": "Cowley Road", "amenity": "restaurant", "branch": "Oxford - Cowley Road", "brand": "Nando's", "brand:wikidata": "Q3472954", "brand:wikipedia": "en:Nando's", "breakfast": "no", "changing_table": "yes", "check_date": "2025-06-15", "contact:facebook": "https://www.facebook.com/Nandos.UnitedKingdom", "contact:instagram": "https://www.instagram.com/nandosuk/", "contact:tripadvisor": "https://www.tripadvisor.co.uk/Restaurant_Review-g186361-d1010901-Reviews-Nando_s_Oxford_Cowley_Road-Oxford_Oxfordshire_England.html", "contact:twitter": "https://x.com/NandosUK", "contact:youtube": "https://www.youtube.com/channel/UCVgYYZS_7RE-Hh9dFVMo8Rw", "cuisine": "chicken;portuguese", "delivery": "yes", "diet:halal": "yes", "diet:vegan": "yes", "diet:vegetarian": "yes", "dinner": "no", "drink:beer": "yes", "drink:cola": "yes", "drink:soft_drink": "yes", "drink:tea": "yes", "drink:wine": "yes", "email": "hello@nandos.co.uk", "fhrs:id": "268508", "internet_access": "yes", "lunch": "no", "name": "Nando's", "opening_hours": "Mo-Su 11:00-22:00", "opening_hours:url": "https://www.nandos.co.uk/restaurants/oxford-cowley-road", "outdoor_seating": "yes", "phone": "+44 1865 203357", "reservation": "no", "takeaway": "yes", "website": "https://www.nandos.co.uk/restaurants/oxford-cowley-road", "website:menu": "https://www.nandos.co.uk/food/menu/", "wheelchair": "yes"}}, {"type": "node", "id": 322721532, "lat": 51.7496181, "lon": -1.2430346, "tags": {"addr:city": "Oxford", "addr:housenumber": "21", "addr:postcode": "OX4 1HP", "addr:street": "Cowley Road", "amenity": "restaurant", "breakfast": "no", "check_date": "2025-06-15", "contact:facebook": "https://www.facebook.com/tribe.oxford/", "contact:instagram": "https://www.instagram.com/tribe.oxford/", "contact:tripadvisor": "https://www.tripadvisor.co.uk/Restaurant_Review-g186361-d23801090-Reviews-Tribe-Oxford_Oxfordshire_England.html", "cuisine": "indian;chinese;asian", "delivery": "yes", "description": "There a couple of WEEKEND SPECIAL (LUNCH ONLY) dishes", "diet:gluten_free": "yes", "diet:lactose_free": "yes", "diet:vegan": "yes", "diet:vegetarian": "yes", "dinner": "no", "drink:beer": "yes", "drink:soft_drink": "yes", "drink:wine": "yes", "email": "tribe.oxfordUK@gmail.com", "fhrs:id": "1426971", "lunch": "no", "name": "Tribe", "opening_hours": "We-Mo 17:00-22:00", "opening_hours:url": "https://tribeoxford.co.uk/", "phone": "+44 7413 747888", "reservation": "yes", "reservation:website": "https://tribeoxfordonline.com/book-table", "takeaway": "yes", "website": "https://tribeoxford.co.uk/", "website:menu": "https://tribeoxford.co.uk/menu/"}}, {"type": "node", "id": 323182820, "lat": 51.7521752, "lon": -1.255848}, {"type": "node", "id": 324321280, "lat": 51.7534444, "lon": -1.2617999, "tags": {"addr:city": "Oxford", "addr:housenumber": "41-47", "addr:postcode": "OX1 2BE", "addr:street": "George Street", "alt_name": "Cote Brasserie", "amenity": "restaurant", "brand": "C\u00f4te Brasserie", "brand:wikidata": "Q48699908", "brand:wikipedia": "en:C\u00f4te", "breakfast": "Fr-Sa 10:00-11:30", "check_date": "2025-06-15", "contact:facebook": "https://www.facebook.com/coterestaurant/", "contact:instagram": "https://www.instagram.com/coteuk/", "contact:linkedin": "https://www.linkedin.com/company/c%C3%B4te-brasserie", "contact:tripadvisor": "https://www.tripadvisor.co.uk/Restaurant_Review-g186361-d3607145-Reviews-Cote_Oxford-Oxford_Oxfordshire_England.html", "cuisine": "french", "delivery": "yes", "description": "A Sunday exclusive for two to share - French Sunday Roast. There is an opportunity to join a newsletter.", "diet:gluten_free": "yes", "diet:lactose_free": "yes", "diet:vegan": "yes", "diet:vegetarian": "yes", "dinner": "no", "drink:beer": "yes", "drink:soft_drink": "yes", "drink:wine": "yes", "email": "oxford@cote.co.uk", "fhrs:id": "548824", "lunch": "menu", "lunch:menu": "Mo-Fr 11:30-18:00;Sa 11:30-17:00;Su 11:30-21:00", "name": "C\u00f4te Brasserie", "opening_hours": "Mo-Th 11:30-22:00; Fr,Sa 10:00-23:00; Su 10:00-21:00", "opening_hours:url": "https://www.cote.co.uk/restaurant/oxford", "phone": "+44 1865 251992", "reservation": "yes", "reservation:website": "https://www.cote.co.uk/book-a-table/step1", "smoking": "no", "takeaway": "no", "website": "https://www.cote.co.uk/restaurant/oxford", "website:menu": "https://www.cote.co.uk/restaurant/oxford/menus?menucode=a-la-carte", "wheelchair": "yes"}}, {"type": "node", "id": 324321282, "lat": 51.753356, "lon": -1.2623797, "tags": {"addr:city": "Oxford", "addr:housenumber": "59", "addr:postcode": "OX1 2BE", "addr:street": "George Street", "amenity": "restaurant", "branch": "Oxford", "brand": "Zizzi", "brand:wikidata": "Q8072944", "brand:wikipedia": "en:Zizzi", "breakfast": "no", "changing_table": "yes", "check_date": "2025-06-15", "contact:facebook": "https://www.facebook.com/wearezizzi", "contact:instagram": "https://www.instagram.com/wearezizzi/", "contact:linkedin": "https://www.linkedin.com/company/zizzi-restaurants/", "contact:tiktok": "https://www.tiktok.com/@wearezizzi", "contact:tripadvisor": "https://www.tripadvisor.co.uk/Restaurant_Review-g186361-d1010911-Reviews-Zizzi_Oxford-Oxford_Oxfordshire_England.html", "contact:twitter": "https://x.com/WeAreZizzi", "cuisine": "italian", "delivery": "yes", "description": "There is a 3 course set menu", "diet:gluten_free": "yes", "diet:vegan": "yes", "diet:vegetarian": "yes", "dinner": "no", "drink:beer": "yes", "drink:coffee": "yes", "drink:cola": "yes", "drink:soft_drink": "yes", "drink:sparkling_wine": "yes", "drink:tea": "yes", "drink:wine": "yes", "email": "feedback@zizzi.co.uk", "fhrs:id": "268629", "internet_access": "yes", "lunch": "no", "name": "Zizzi", "opening_hours": "Su-Th 11:30-22:00; Fr,Sa 11:30-23:00", "opening_hours:url": "https://www.zizzi.co.uk/italian/restaurants/oxford", "phone": "+44 1865 202993", "reservation": "yes", "reservation:website": "https://www.zizzi.co.uk/bookings", "takeaway": "yes", "website": "https://www.zizzi.co.uk/italian/restaurants/oxford", "website:menu": "https://www.zizzi.co.uk/menus/eat-in-menu", "wheelchair": "yes"}}, {"type": "node", "id": 324321295, "lat": 51.7532183, "lon": -1.2605985, "tags": {"addr:city": "Oxford", "addr:housenumber": "36", "addr:postcode": "OX1 2EB", "addr:street": "St Michael's Street", "amenity": "restaurant", "breakfast": "no", "check_date": "2025-06-15", "cuisine": "indian", "delivery": "yes", "description": "Student Discount - 10% off for students, Sunday to Wednesday (student ID required). Student Night - Every Thursday.", "diet:vegan": "yes", "diet:vegetarian": "yes", "dinner": "no", "drink:beer": "yes", "drink:cola": "yes", "drink:soft_drink": "yes", "drink:sparkling_wine": "yes", "drink:wine": "yes", "email": "info@chutneysoxford.co.uk", "fhrs:id": "269386", "lunch": "no", "name": "Chutneys Indian Brasserie", "opening_hours": "Mo-Su 17:30-23:00", "opening_hours:url": "https://www.chutneysoxford.co.uk/", "phone": "+44 1865 724241", "reservation": "yes", "reservation:website": "https://www.chutneysoxford.co.uk/reserve-a-table", "takeaway": "yes", "website": "https://www.chutneysoxford.co.uk/", "website:menu": "https://www.chutneysoxford.co.uk/menus", "wheelchair": "no"}}, {"type": "node", "id": 331745431, "lat": 51.7326476, "lon": -1.207936, "tags": {"amenity": "atm", "operator": "HSBC"}}, {"type": "node", "id": 336078523, "lat": 51.7375863, "lon": -1.199899}, {"type": "node", "id": 336078525, "lat": 51.7376681, "lon": -1.199855}, {"type": "node", "id": 336078527, "lat": 51.737641, "lon": -1.1997272}, {"type": "node", "id": 336078529, "lat": 51.7375598, "lon": -1.1997725}, {"type": "node", "id": 339169969, "lat": 51.7532066, "lon": -1.2699836, "tags": {"brand": "Marks & Spencer", "brand:short": "M&S", "brand:wikidata": "Q714491", "brand:wikipedia": "en:Marks & Spencer", "check_date": "2025-02-10", "check_date:opening_hours": "2024-07-21", "contact:website": "https://www.marksandspencer.com/stores/oxford-rail-simply-food-120", "fhrs:id": "269238", "name": "M&S Simply Food", "opening_hours": "Mo-We 07:00-21:00; Th-Sa 07:00-22:00; Su 10:00-18:00", "shop": "convenience", "source": "local_knowledge", "wheelchair": "yes"}}, {"type": "node", "id": 339816307, "lat": 51.769326, "lon": -1.2534233}, {"type": "node", "id": 339816309, "lat": 51.7695285, "lon": -1.2535449}, {"type": "node", "id": 339816310, "lat": 51.7699869, "lon": -1.2536826}, {"type": "node", "id": 350467784, "lat": 51.7509851, "lon": -1.2082443, "tags": {"check_date:opening_hours": "2023-10-28", "name": "Girdlestone Stores", "opening_hours:signed": "no", "shop": "convenience"}}, {"type": "node", "id": 361156898, "lat": 51.7208148, "lon": -1.2200387, "tags": {"shop": "convenience"}}, {"type": "node", "id": 365367873, "lat": 51.7623095, "lon": -1.1957653}, {"type": "node", "id": 369847722, "lat": 51.7300465, "lon": -1.2374274, "tags": {"fhrs:id": "268472", "name": "Iffley Community Shop", "shop": "convenience"}}, {"type": "node", "id": 370144533, "lat": 51.7389707, "lon": -1.2348474, "tags": {"addr:housenumber": "297", "addr:postcode": "OX4 4AG", "addr:street": "Iffley Road", "amenity": "post_office", "diet:halal": "no", "name": "Donnington Post Office", "opening_hours": "Mo-Sa 08:00-20:00; Su 10:00-16:00", "shop": "convenience"}}, {"type": "node", "id": 370426562, "lat": 51.7333471, "lon": -1.2251326}, {"type": "node", "id": 380044376, "lat": 51.7768323, "lon": -1.2642197}, {"type": "node", "id": 380044392, "lat": 51.7768494, "lon": -1.2642217}, {"type": "node", "id": 381692663, "lat": 51.735946, "lon": -1.240006}, {"type": "node", "id": 387521209, "lat": 51.7471033, "lon": -1.2350513, "tags": {"addr:city": "Oxford", "addr:housenumber": "178", "addr:postcode": "OX4 1UE", "addr:street": "Cowley Road", "alt_name": "Rice Box Chinese restaurant and takeaway", "amenity": "restaurant", "breakfast": "no", "check_date": "2025-06-15", "contact:facebook": "https://www.facebook.com/p/Rice-Box-Restaurant-Oxford-100063670446095/", "contact:tripadvisor": "https://www.tripadvisor.co.uk/Restaurant_Review-g186361-d1316407-Reviews-Rice_Box-Oxford_Oxfordshire_England.html", "cuisine": "chinese;chicken;noodle", "delivery": "yes", "diet:vegetarian": "yes", "dinner": "no", "email": "info@riceboxrestaurant.co.uk", "fhrs:id": "268526", "level": "0", "lunch": "no", "name": "The Rice Box", "opening_hours": "Mo-Su 12:00-23:30", "opening_hours:url": "https://riceboxoxford.co.uk/info", "phone": "+44 1865 202138", "reservation": "no", "takeaway": "yes", "website": "https://riceboxoxford.co.uk/", "website:menu": "https://riceboxoxford.co.uk/", "wheelchair": "limited"}}, {"type": "node", "id": 413289371, "lat": 51.7493572, "lon": -1.2009267, "tags": {"addr:city": "Oxford", "addr:housenumber": "3", "addr:postcode": "OX3 8RA", "addr:street": "Atkyns Road", "addr:suburb": "Headington", "fhrs:id": "1584154", "name": "Turna", "opening_hours": "Mo-Th 11:00-21:30; Fr,Sa 11:00-22:00; Su 11:00-21:00", "shop": "convenience"}}, {"type": "node", "id": 429998564, "lat": 51.7350675, "lon": -1.205833, "tags": {"addr:city": "Oxford", "addr:country": "GB", "addr:housenumber": "95,97", "addr:postcode": "OX4 2JB", "addr:street": "Wilkins Road", "brand": "Best-one", "brand:wikidata": "Q4896532", "brand:wikipedia": "en:Best-one", "contact:website": "https://stores.best-one.co.uk/wiggleys-corner-shop-best-one-153c82fb7261", "fhrs:id": "269477", "name": "Best-one", "shop": "convenience"}}, {"type": "node", "id": 429998580, "lat": 51.7355358, "lon": -1.20549, "tags": {"addr:city": "Oxford", "addr:country": "GB", "addr:housenumber": "81;81A", "addr:postcode": "OX4 2JB", "addr:street": "Wilkins Road", "fhrs:id": "268916", "name": "Stonecznik", "shop": "convenience", "wheelchair": "limited"}}, {"type": "node", "id": 430207099, "lat": 51.7362361, "lon": -1.2087821, "tags": {"addr:housenumber": "61", "addr:street": "Hollow Way", "alt_name": "Singh's", "name": "Today's Local", "shop": "convenience"}}, {"type": "node", "id": 463298012, "lat": 51.7520808, "lon": -1.289257}, {"type": "node", "id": 463298013, "lat": 51.7520626, "lon": -1.2889723}, {"type": "node", "id": 463298014, "lat": 51.7515668, "lon": -1.289055}, {"type": "node", "id": 463298015, "lat": 51.7515724, "lon": -1.2891435}, {"type": "node", "id": 499424664, "lat": 51.7460979, "lon": -1.2318697, "tags": {"addr:city": "Oxford", "addr:housenumber": "209", "addr:postcode": "OX4 1XF", "addr:street": "Cowley Road", "alt_name": "Oodles Wok", "amenity": "restaurant", "branch": "Oxford", "brand": "Oodles", "breakfast": "no", "check_date": "2025-06-15", "contact:facebook": "https://www.facebook.com/oodleswokuk/", "contact:instagram": "https://www.instagram.com/oodleswok_uk/", "contact:tiktok": "https://www.tiktok.com/@oodleswokuk", "contact:tripadvisor": "https://www.tripadvisor.co.uk/Restaurant_Review-g186361-d24986038-Reviews-Oodles_Wok_Oxford-Oxford_Oxfordshire_England.html", "cuisine": "chinese;chicken", "delivery": "yes", "description": "There is an opportunity to join a newsletter", "diet:vegetarian": "yes", "dinner": "no", "drink:soft_drink": "yes", "drink:tea": "yes", "email": "socialmedia@oodleswok.com", "fhrs:id": "1516621", "lunch": "no", "name": "Oodles", "opening_hours": "Mo-Th 12:00-22:45; Fr-Su 12:00-23:00", "opening_hours:url": "https://oodleswok.co.uk/locations/", "phone": "+44 1865 800032", "reservation": "no", "reservation:website": "2025-06-15", "takeaway": "yes", "website": "https://oodleschinese.com/", "website:menu": "https://oodleswok.co.uk/our-food/"}}, {"type": "node", "id": 504746203, "lat": 51.7465793, "lon": -1.2336259, "tags": {"addr:city": "Oxford", "addr:housename": "Raja House", "addr:housenumber": "212-214", "addr:postcode": "OX4 1UQ", "addr:street": "Cowley Road", "alt_name": "NEF Istanbul", "amenity": "restaurant", "breakfast": "no", "check_date": "2025-06-15", "contact:facebook": "https://www.facebook.com/nefistanbulrestaurant/?ref=py_c", "contact:instagram": "https://www.instagram.com/nefistanbulrestaurant/", "contact:tripadvisor": "https://www.tripadvisor.co.uk/Restaurant_Review-g186361-d15756307-Reviews-NEF_Istanbul_Restaurant-Oxford_Oxfordshire_England.html", "cuisine": "turkish;kebab", "delivery": "yes", "description": "There is an opportunity to join a newsletter.", "diet:vegetarian": "yes", "dinner": "no", "drink:cola": "yes", "drink:soft_drink": "yes", "email": "info@nefistanbul.co.uk", "fhrs:id": "1567229", "lunch": "no", "name": "Nef Istanbul Restaurant", "opening_hours": "Mo-Sa 11:00-23:00; Su 12:00-22:00", "opening_hours:url": "https://www.nefistanbul.co.uk/home-1", "phone": "+44 1865 250170", "reservation": "yes", "reservation:website": "https://www.nefistanbul.co.uk/", "takeaway": "yes", "website": "https://www.nefistanbul.co.uk/home-1", "website:menu": "https://www.nefistanbul.co.uk/online-ordering"}}, {"type": "node", "id": 504747576, "lat": 51.746965, "lon": -1.2346624, "tags": {"addr:housenumber": "188", "addr:postcode": "OX4 1UE", "addr:street": "Cowley Road", "fhrs:id": "268917", "name": "Jing Jing Oriental Food Store", "shop": "convenience"}}, {"type": "node", "id": 504748231, "lat": 51.7470862, "lon": -1.2349897, "tags": {"addr:city": "Oxford", "addr:housenumber": "180", "addr:postcode": "OX4 1UE", "addr:street": "Cowley Road", "amenity": "restaurant", "cuisine": "lebanese;moroccan;mediterranean", "delivery": "yes", "diet:vegetarian": "yes", "email": "info@keshoxford.com", "fhrs:id": "268528", "name": "Le Kesh", "opening_hours": "Mo-Fr 17:00-23:00; Sa-Su 12:30-23:00", "opening_hours:url": "https://keshoxford.com/", "phone": "+44 1865 202077", "reservation": "yes", "reservation:website": "https://keshoxford.com/online-booking/", "takeaway": "yes", "website": "https://keshoxford.com/"}}, {"type": "node", "id": 504749436, "lat": 51.7472734, "lon": -1.2348358, "tags": {"addr:city": "Oxford", "addr:housenumber": "179", "addr:postcode": "OX4 1UT", "addr:street": "Cowley Road", "alt_name": "Jin Jin Chinese Restaurant", "amenity": "restaurant", "cuisine": "chinese", "delivery": "yes", "fhrs:id": "1268497", "name": "Jin Jin Restaurant", "opening_hours": "Mo-Fr 16:30-23:00; Sa-Su 16:30-23:00", "opening_hours:url": "https://jinjinchineserestaurant.co.uk/", "phone": "+44 1865 203763", "reservation": "yes", "reservation:website": "https://orders.jinjinchineserestaurant.co.uk/app/reservations", "takeaway": "yes", "website": "https://jinjinchineserestaurant.co.uk/"}}, {"type": "node", "id": 504751932, "lat": 51.7478499, "lon": -1.236736, "tags": {"addr:city": "Oxford", "addr:housename": "Brousko", "addr:housenumber": "137-139", "addr:postcode": "OX4 1HU", "addr:street": "Cowley Road", "amenity": "restaurant", "check_date": "2025-06-15", "contact:facebook": "https://www.facebook.com/people/Afghan-Cuisine/61565929422616/", "cuisine": "kebab;afghan", "delivery": "yes", "fhrs:id": "1761253", "name": "Afghan Cuisine", "opening_hours": "Mo-Su 13:00-24:00", "opening_hours:url": "https://www.facebook.com/people/Afghan-Cuisine/61565929422616/", "phone": "+44 1865 493165", "reservation": "no", "takeaway": "yes"}}, {"type": "node", "id": 504757288, "lat": 51.7425448, "lon": -1.2268831, "tags": {"addr:city": "Oxford", "addr:housenumber": "366,366A", "addr:street": "Cowley Road", "alt_name": "OCS", "contact:phone": "07424330293", "fhrs:id": "1111099", "level": "0", "name": "Oxford Corner Shop", "opening_hours": "Mo-Su 08:00-23:00", "shop": "convenience", "wheelchair": "yes"}}, {"type": "node", "id": 507443819, "lat": 51.7503739, "lon": -1.2417194, "tags": {"addr:city": "Oxford", "addr:housenumber": "43b", "addr:postcode": "OX4 1AG", "addr:street": "St Clements", "amenity": "restaurant", "cuisine": "asian", "delivery": "yes", "diet:gluten_free": "yes", "diet:vegan": "yes", "fhrs:id": "982226", "name": "Pan Pan", "opening_hours": "Mo-Su 12:00-22:00", "opening_hours:url": "https://panpanoxford.com/#opening", "phone": "+44 1865 203000", "reservation": "yes", "reservation:website": "https://web.dojo.app/create_booking/vendor/-Bdi05wwjk9UgTvXfoxDpLBUDHROksKSZZC4RAk8Ygg_restaurant", "takeaway": "yes", "website": "https://panpanoxford.com/"}}, {"type": "node", "id": 522777084, "lat": 51.7423384, "lon": -1.2555032, "tags": {"addr:city": "Oxford", "addr:housenumber": "86", "addr:postcode": "OX1 4PL", "addr:street": "Abingdon Road", "brand": "Londis", "brand:wikidata": "Q21008564", "fhrs:id": "268323", "name": "Londis", "opening_hours": "Mo-Su 08:00-20:00", "shop": "convenience", "source:addr": "FHRS Open Data", "website": "https://www.londis.co.uk/our-stores/abingdon-road-londis", "wheelchair": "no"}}, {"type": "node", "id": 530775839, "lat": 51.7647318, "lon": -1.2615835, "tags": {"addr:city": "Oxford", "addr:housenumber": "15", "addr:postcode": "OX2 6LX", "addr:street": "North Parade Avenue", "amenity": "restaurant", "check_date": "2023-07-30", "cuisine": "indian", "delivery": "yes", "fhrs:id": "268874", "name": "Jee Saheb", "opening_hours": "Tu-Th,Sa,Su 12:00-14:00,18:00-22:00; Fr 18:00-22:00", "opening_hours:url": "https://www.jeesaheb.co.uk/", "phone": "+44 1865 513773", "reservation": "yes", "reservation:website": "https://orders.jeesaheb.co.uk/app/reservations", "takeaway": "yes", "website": "https://www.jeesaheb.co.uk/"}}, {"type": "node", "id": 534789332, "lat": 51.7488522, "lon": -1.240824, "tags": {"addr:city": "Oxford", "addr:housenumber": "72-74", "addr:postcode": "OX4 1JB", "addr:street": "Cowley Road", "amenity": "restaurant", "cuisine": "tapas;spanish", "delivery": "no", "fhrs:id": "949738", "name": "Arbequina", "opening_hours": "Th-Fr 17:00-22:00; Sa 12:00-23:30", "opening_hours:kitchen": "Th-Fr 17:00-22:00; Sa 12:00-14:45,16:30-21:30", "opening_hours:url": "https://arbequina.co.uk/booking", "phone": "+44 1865 792777", "reservation": "yes", "reservation:website": "https://arbequina.co.uk/booking", "takeaway": "no", "website": "https://arbequina.co.uk/"}}, {"type": "node", "id": 539530959, "lat": 51.736712, "lon": -1.2183952}, {"type": "node", "id": 539530960, "lat": 51.7368539, "lon": -1.2181739}, {"type": "node", "id": 539530961, "lat": 51.7369042, "lon": -1.218258}, {"type": "node", "id": 539530962, "lat": 51.7367623, "lon": -1.2184793}, {"type": "node", "id": 539560503, "lat": 51.7325503, "lon": -1.2081393}, {"type": "node", "id": 539560504, "lat": 51.732519, "lon": -1.2080439}, {"type": "node", "id": 539560513, "lat": 51.7327074, "lon": -1.2080055}, {"type": "node", "id": 539560514, "lat": 51.7326767, "lon": -1.2079112}, {"type": "node", "id": 540221202, "lat": 51.7682547, "lon": -1.2405575, "tags": {"name": "Salford Stores", "shop": "convenience"}}, {"type": "node", "id": 617693821, "lat": 51.7465094, "lon": -1.233451, "tags": {"addr:city": "Oxford", "addr:housenumber": "218", "addr:postcode": "OX4 1UQ", "addr:street": "Cowley Road", "alt_name": "Il Gusto Oxford LTD", "amenity": "restaurant", "cuisine": "italian", "delivery": "no", "fhrs:id": "1680803", "name": "FRESCO", "old_name": "Il Gusto", "opening_hours": "Tu-Th 17:00-22:00; Fr-Su 12:00-22:00", "opening_hours:url": "https://www.frescooxford.co.uk/", "phone": "+44 1865 455336", "reservation": "yes", "reservation:website": "https://www.frescooxford.co.uk/bookings", "takeaway": "yes", "website": "https://www.frescooxford.co.uk/"}}, {"type": "node", "id": 619315032, "lat": 51.7286478, "lon": -1.2253947, "tags": {"addr:city": "Oxford", "addr:housenumber": "2", "addr:postcode": "OX4 4JA", "addr:street": "Courtland Road", "addr:suburb": "Rose Hill", "brand": "Premier", "brand:wikidata": "Q7240340", "name": "Old Man's Premier", "operator": "Premier", "shop": "convenience"}}, {"type": "node", "id": 619315115, "lat": 51.7277651, "lon": -1.2248627, "tags": {"addr:city": "Oxford", "addr:housenumber": "96", "addr:postcode": "OX4 4HX", "addr:street": "Rose Hill", "alt_name": "Polish Kitchen", "amenity": "restaurant", "capacity": "26", "cuisine": "polish", "delivery": "yes", "fhrs:id": "1726788", "name": "Polish Kitchen Oxford", "opening_hours": "Mo-Su 12:00-21:00", "opening_hours:url": "https://www.polishkitchen.uk/", "phone": "+44 1865 770001", "reservation": "yes", "takeaway": "yes", "website": "https://www.polishkitchen.uk/"}}, {"type": "node", "id": 619325341, "lat": 51.7471239, "lon": -1.2351154, "tags": {"addr:housenumber": "176", "addr:postcode": "OX4 1UE", "addr:street": "Cowley Road", "fhrs:id": "1341271", "name": "Brasileiro", "shop": "convenience", "website": "https://brasileiroonline.co.uk"}}, {"type": "node", "id": 619335918, "lat": 51.7477427, "lon": -1.2371096, "tags": {"addr:city": "Oxford", "addr:housenumber": "136", "addr:postcode": "OX4 1JJ", "addr:street": "Cowley Road", "alt_name": "Massaya", "amenity": "restaurant", "check_date": "2025-06-15", "contact:instagram": "https://www.instagram.com/massyarestaurant/", "cuisine": "lebanese;arab;middle_eastern", "delivery": "yes", "fhrs:id": "1794035", "name": "Massaya Lebanese Restaurant Oxford", "opening_hours": "Mo-Su 12:00-23:00", "opening_hours:url": "https://www.ubereats.com/gb/store/massaya-restaurant-oxford/fM0R3hnvTPuUHdrbPT8A1w?diningMode=DELIVERY&mod=storeInfo&modctx=%257B%2522storeSlug%2522%253A%2522massaya-restaurant-oxford%2522%252C%2522storeUuid%2522%253A%25227ccd11de-19ef-4cfb-941d-dadb3d3f0", "phone": "+44 1865 450738", "reservation": "no", "takeaway": "no"}}, {"type": "node", "id": 639133497, "lat": 51.7245593, "lon": -1.1991889, "tags": {"addr:city": "Oxford", "addr:housename": "Balfour Road Post Office", "addr:housenumber": "69", "addr:postcode": "OX4 6AG", "addr:street": "Balfour Road", "brand": "Morrisons Daily", "brand:wikidata": "Q99752411", "fhrs:id": "1522412", "name": "Morrisons Daily", "shop": "convenience", "source:addr": "FHRS Open Data", "source:name": "FHRS Open Data"}}, {"type": "node", "id": 659858767, "lat": 51.7538069, "lon": -1.2612334, "tags": {"addr:city": "Oxford", "addr:housename": "Threeway House", "addr:postcode": "OX1 2BT", "addr:source": "https://www.angridthai.com/find-us", "addr:street": "George Street", "addr:unit": "D", "alt_name": "Angrid Thai", "amenity": "restaurant", "check_date": "2025-06-15", "contact:instagram": "https://www.instagram.com/angridthai/", "cuisine": "thai", "delivery": "yes", "fhrs:id": "269224", "name": "Angrid Thai", "opening_hours": "Mo 11:30-21:00; Tu-Su 11:30-22:00", "opening_hours:url": "https://www.angridthai.com/", "phone": "+44 1865 791898", "reservation": "yes", "reservation:website": "https://autoreserve.com/en/restaurants/jaiJueqsTajwGiPALuHK", "source": "photograph", "source:addr": "FHRS Open Data", "takeaway": "yes", "website": "https://www.angridthai.com/", "wheelchair": "yes", "wheelchair:description": "Restaurant is accessible from the street with no steps, however toilets are downstairs... Many steps."}}, {"type": "node", "id": 659858775, "lat": 51.753761, "lon": -1.2594773, "tags": {"addr:city": "Oxford", "addr:housenumber": "5", "addr:postcode": "OX1 2AT", "addr:street": "George Street", "amenity": "restaurant", "branch": "Oxford", "brand": "ASK Italian", "brand:wikidata": "Q4807056", "brand:wikipedia": "en:ASK Italian", "check_date": "2025-06-15", "cuisine": "italian", "delivery": "yes", "diet:vegan": "yes", "diet:vegetarian": "yes", "fhrs:id": "268615", "level": "0", "name": "ASK Italian", "opening_hours": "Mo-Th 11:30-21:30; Fr,Su 11:30-22:00; Sa 11:30-23:00", "opening_hours:url": "https://www.askitalian.co.uk/italian/restaurants/oxford", "phone": "+44 1865 806766", "reservation": "yes", "reservation:website": "https://www.askitalian.co.uk/italian/restaurants/oxford", "source:addr:postcode": "FHRS Open Data", "takeaway": "yes", "website": "https://www.askitalian.co.uk/italian/restaurants/oxford", "wheelchair": "yes"}}, {"type": "node", "id": 659858777, "lat": 51.7538971, "lon": -1.2596433, "tags": {"addr:city": "Oxford", "addr:housenumber": "14-16", "addr:postcode": "OX1 2AF", "addr:street": "George Street", "amenity": "restaurant", "branch": "Oxford", "brand": "Bella Italia", "brand:wikidata": "Q4883362", "brand:wikipedia": "en:Bella Italia", "check_date": "2025-06-15", "cuisine": "italian", "delivery": "yes", "diet:vegan": "no", "diet:vegetarian": "yes", "fhrs:id": "268618", "name": "Bella Italia", "opening_hours": "Mo-Sa 11:30-22:00; Su 11:30-21:00", "opening_hours:url": "https://www.bellaitalia.co.uk/restaurants/oxford/george-street", "phone": "+44 1865 509729", "reservation": "yes", "reservation:website": "https://www.bellaitalia.co.uk/restaurants/oxford/george-street#booking", "source:addr:postcode": "FHRS Open Data", "takeaway": "yes", "website": "https://www.bellaitalia.co.uk/restaurants/oxford/george-street", "wheelchair": "yes"}}, {"type": "node", "id": 663641334, "lat": 51.7785283, "lon": -1.2656546, "tags": {"addr:city": "Oxford", "addr:housename": "Suffolk House", "addr:housenumber": "263-265", "addr:postcode": "OX2 7HN", "addr:street": "Banbury Road", "addr:unit": "Unit 9", "brand:wikidata": "Q13218434", "fhrs:id": "441855", "name": "Sainsbury's Local", "operator": "Sainsbury's Supermarkets Ltd", "shop": "supermarket", "source": "local_knowledge", "source:addr": "FHRS Open Data", "wheelchair": "yes"}}, {"type": "node", "id": 663653790, "lat": 51.7767209, "lon": -1.2648214, "tags": {"addr:city": "Oxford", "addr:housenumber": "215", "addr:postcode": "OX2 7HQ", "addr:street": "Banbury Road", "amenity": "restaurant", "check_date": "2025-06-15", "cuisine": "brunch;european;british", "delivery": "yes", "fhrs:id": "1814021", "name": "Kitchen Food Company", "opening_hours": "We-Th 10:00-12:00; Fr-Sa 10:00-14:30; Su 10:00-15:00", "opening_hours:url": "https://www.kitchenfoodco.co.uk/", "phone": "+44 1865 511149", "reservation": "no", "takeaway": "yes", "website": "https://www.kitchenfoodco.co.uk/"}}, {"type": "node", "id": 663653792, "lat": 51.7760339, "lon": -1.2645545, "tags": {"addr:city": "Oxford", "addr:housenumber": "197", "addr:postcode": "OX2 7AR", "addr:street": "Banbury Road", "amenity": "restaurant", "cuisine": "chinese", "delivery": "yes", "fhrs:id": "268366", "name": "XI'AN", "opening_hours": "Tu-Su 17:00-21:30", "opening_hours:url": "https://www.xianoxford.com/location", "phone": "+44 7599 699796", "reservation": "yes", "reservation:website": "https://www.xianoxford.com/reservations-1", "takeaway": "yes", "website": "https://www.xianoxford.com/", "wheelchair": "yes"}}, {"type": "node", "id": 663653793, "lat": 51.7759342, "lon": -1.2645155, "tags": {"addr:city": "Oxford", "addr:housenumber": "193", "addr:postcode": "OX2 7AR", "addr:street": "Banbury Road", "amenity": "restaurant", "cuisine": "indian", "delivery": "yes", "fhrs:id": "268684", "name": "Spice Lounge", "opening_hours": "Mo-Su 17:30-22:30", "opening_hours:url": "https://www.spiceloungeoxford.co.uk/contact", "phone": "+44 1865 510071", "reservation": "yes", "reservation:website": "https://www.spiceloungeoxford.co.uk/reservation", "source:addr:postcode": "FHRS Open Data", "takeaway": "yes", "website": "https://www.spiceloungeoxford.co.uk/", "wheelchair": "no"}}, {"type": "node", "id": 663653802, "lat": 51.7779079, "lon": -1.2653369, "tags": {"addr:city": "Oxford", "addr:housenumber": "253", "addr:postcode": "OX2 7HN", "addr:street": "Banbury Road", "amenity": "restaurant", "check_date": "2025-06-15", "contact:facebook": "https://www.facebook.com/LBsLebaneseCuisine/", "cuisine": "lebanese", "delivery": "yes", "email": "lbscatering95@yahoo.co.uk", "fhrs:id": "268372", "name": "LB's", "opening_hours": "Mo-Sa 08:00-15:30", "opening_hours:url": "https://www.facebook.com/LBsLebaneseCuisine/", "phone": "+44 1865 311660", "reservation": "no", "takeaway": "yes"}}, {"type": "node", "id": 663987576, "lat": 51.7785192, "lon": -1.2659879, "tags": {"addr:city": "Oxford", "addr:housename": "Suffolk House", "addr:housenumber": "263-265", "addr:postcode": "OX2 7HN", "addr:street": "Banbury Road", "addr:unit": "19", "amenity": "restaurant", "check_date": "2025-06-15", "cuisine": "chinese;malaysian;asian", "delivery": "yes", "fhrs:id": "1519430", "name": "Kopitiam", "opening_hours": "Tu-Th,Su 11:00-22:00; Fr-Sa 11:00-22:30", "opening_hours:url": "https://kopitiamoxford.co.uk/", "phone": "+44 1865 454388", "reservation": "no", "source:addr": "FHRS Open Data", "takeaway": "yes", "website": "https://kopitiamoxford.co.uk/"}}, {"type": "node", "id": 663987577, "lat": 51.7805393, "lon": -1.2664859, "tags": {"addr:city": "Oxford", "addr:housenumber": "283", "addr:postcode": "OX2 7JF", "addr:street": "Banbury Road", "amenity": "restaurant", "check_date": "2025-06-15", "cuisine": "oriental;asian", "delivery": "no", "fhrs:id": "731309", "name": "New Dancing Dragon", "opening_hours": "Mo-Th 12:00-15:00,17:30-23:00; Fr-Sa 12:00-15:00,17:30-23:30; Su 12:00-15:00,17:30-22:30", "opening_hours:url": "https://newdancingdragon.co.uk/", "phone": "+44 1865 554475", "reservation": "no", "takeaway": "yes", "website": "https://newdancingdragon.co.uk/"}}, {"type": "node", "id": 728342880, "lat": 51.7489465, "lon": -1.2413731, "tags": {"addr:city": "Oxford", "addr:housenumber": "56-60", "addr:postcode": "OX4 1JB", "addr:street": "Cowley Road", "amenity": "restaurant", "cuisine": "indian;curry;south_indian", "delivery": "yes", "fhrs:id": "1664074", "name": "Dosa Darlings", "opening_hours": "Mo-Sa 12:00-22:00; Su 12:00-21:00", "opening_hours:url": "https://www.dosadarlings.com/", "phone": "+44 1865 602040", "reservation": "yes", "reservation:website": "https://www.sevenrooms.com/explore/dosadarlings/reservations/create/search/", "source:addr": "FHRS Open Data", "takeaway": "yes", "website": "https://www.dosadarlings.com/"}}, {"type": "node", "id": 745747211, "lat": 51.7841832, "lon": -1.2902405, "tags": {"addr:city": "Oxford", "addr:housenumber": "82", "addr:postcode": "OX2 8NY", "addr:street": "Godstow Road", "fhrs:id": "1534509", "name": "Port Meadow Convenience Store", "shop": "convenience"}}, {"type": "node", "id": 746814170, "lat": 51.7205573, "lon": -1.201897, "tags": {"addr:housenumber": "98", "fhrs:id": "1768876", "name": "Region To Season", "shop": "convenience"}}, {"type": "node", "id": 746814187, "lat": 51.7204576, "lon": -1.2017527, "tags": {"addr:city": "Oxford", "addr:housenumber": "102-104", "addr:postcode": "OX4 6HS", "addr:street": "Blackbird Leys Road", "brand": "Nisa Local", "brand:wikidata": "Q16999069", "name": "Nisa Local", "shop": "convenience"}}, {"type": "node", "id": 747408894, "lat": 51.7483339, "lon": -1.2390358, "tags": {"addr:city": "Oxford", "addr:housenumber": "110", "addr:postcode": "OX4 1JE", "addr:street": "Cowley Road", "amenity": "restaurant", "check_date": "2025-06-15", "cuisine": "indian", "delivery": "yes", "fhrs:id": "1524692", "name": "Majliss", "opening_hours": "Mo-Th 17:30-21:30; Fr-Sa 17:30-22:00", "opening_hours:url": "https://www.majliss.co.uk/information", "phone": "+44 1865 726728", "reservation": "yes", "reservation:website": "https://www.google.com/maps/reserve/v/dine/c/yb_dbLIqqpc?source=pa&opi=89978449&hl=en-GB&gei=-ZtOaIfWFNmlhbIPxtfBsAg&sourceurl=https%3A%2F%2Fwww.google.com%2Fsearch%3Fclient%3Dfirefox-b-d%26q%3Dmajliss%2Bdojo%2Breservation%2Boxford&ihs=3", "takeaway": "yes", "website": "https://www.majliss.co.uk/"}}, {"type": "node", "id": 750598991, "lat": 51.7535519, "lon": -1.2591152, "tags": {"addr:city": "Oxford", "addr:housenumber": "6-8", "addr:postcode": "OX1 2DU", "addr:street": "St Michael's Street", "amenity": "restaurant", "cuisine": "chinese;noodle", "delivery": "no", "fhrs:id": "1738495", "name": "Three Thousand Restaurant", "opening_hours": "Mo-Su 11:30-15:00,17:00-21:00", "reservation": "no", "takeaway": "no", "wheelchair": "limited"}}, {"type": "node", "id": 769084322, "lat": 51.7940637, "lon": -1.2840969, "tags": {"addr:city": "Oxford", "addr:housename": "Welcome Break Peartree Roundabout", "addr:postcode": "OX2 8JZ", "addr:street": "Woodstock Road", "brand": "Little Waitrose", "brand:wikidata": "Q771734", "brand:wikipedia": "en:Waitrose & Partners", "fhrs:id": "269257", "gluten_free": "yes", "name": "Little Waitrose", "operator": "Welcome Break", "phone": "+44 1865 514268", "shop": "convenience", "source:addr": "FHRS Open Data", "source:phone": "receipt", "website": "https://www.waitrose.com/find-a-store/oxford-peartree-services", "wheelchair": "yes"}}, {"type": "node", "id": 771823480, "lat": 51.7490973, "lon": -1.2005365, "tags": {"addr:city": "Oxford", "addr:housenumber": "17-19", "addr:postcode": "OX3 8RA", "addr:street": "Atkyns Road", "addr:suburb": "Headington", "brand": "Your Coop Food", "brand:wikidata": "Q121084548", "fhrs:id": "268347", "name": "Your Coop Food", "opening_hours": "Mo-Su 07:00-22:00", "operator": "Midcounties Co-operative", "operator:wikidata": "Q6841138", "shop": "convenience"}}, {"type": "node", "id": 802173340, "lat": 51.7694615, "lon": -1.2537937}, {"type": "node", "id": 802173373, "lat": 51.7692043, "lon": -1.2536444}, {"type": "node", "id": 840481009, "lat": 51.7522519, "lon": -1.2599867, "tags": {"addr:city": "Oxford", "addr:housenumber": "18", "addr:postcode": "OX1 2DW", "addr:street": "New Inn Hall Street", "fhrs:id": "1603536", "name": "Jiamart Chinese Supermarket", "shop": "convenience"}}, {"type": "node", "id": 840484738, "lat": 51.7536984, "lon": -1.2579996, "tags": {"addr:city": "Oxford", "addr:housenumber": "1", "addr:postcode": "OX1 3DA", "addr:street": "Ship Street", "amenity": "restaurant", "check_date": "2025-06-15", "cuisine": "european;british", "delivery": "no", "fhrs:id": "999835", "name": "No.1 Ship Street", "opening_hours": "Mo-Sa 12:00-22:00", "opening_hours:url": "https://www.no1shipstreet.com/contact", "phone": "+44 1865 806637", "reservation": "yes", "reservation:website": "https://www.opentable.co.uk/restref/client/?restref=140217&lang=en&corrid=e014a42a-860b-4076-af8f-a43fa4a2e173", "source:addr": "FHRS Open Data", "takeaway": "no", "website": "https://www.no1shipstreet.com/"}}, {"type": "node", "id": 840486955, "lat": 51.7551097, "lon": -1.2540507, "tags": {"addr:city": "Oxford", "addr:housenumber": "24", "addr:postcode": "OX1 3SB", "addr:street": "Holywell Street", "check_date": "2024-04-21", "fhrs:id": "268753", "name": "Tuck Shop", "shop": "convenience", "source:addr": "FHRS Open Data", "wheelchair": "no"}}, {"type": "node", "id": 848252264, "lat": 51.7486624, "lon": -1.2567873, "tags": {"addr:city": "Oxford", "addr:housenumber": "75", "addr:postcode": "OX1 1RA", "addr:street": "St Aldate's", "branch": "Oxford St Aldates Express", "brand": "Tesco Express", "brand:wikidata": "Q98456772", "check_date": "2025-02-10", "contact:website": "https://www.tesco.com/store-locator/oxford/75-st-aldates", "fhrs:id": "269248", "name": "Tesco Express", "opening_hours": "Mo-Su 07:00-23:00", "phone": "+44 845 6746449", "ref": "6167", "shop": "convenience"}}, {"type": "node", "id": 855294159, "lat": 51.7173952, "lon": -1.1969002}, {"type": "node", "id": 855294290, "lat": 51.7175487, "lon": -1.1969509}, {"type": "node", "id": 855294327, "lat": 51.7173398, "lon": -1.1973375}, {"type": "node", "id": 855294498, "lat": 51.7174559, "lon": -1.1973753}, {"type": "node", "id": 855294522, "lat": 51.7175726, "lon": -1.1972963}, {"type": "node", "id": 957075942, "lat": 51.7603546, "lon": -1.2083986}, {"type": "node", "id": 957076082, "lat": 51.7606075, "lon": -1.208658}, {"type": "node", "id": 958116613, "lat": 51.7605623, "lon": -1.2109538}, {"type": "node", "id": 958116644, "lat": 51.7607118, "lon": -1.2103866}, {"type": "node", "id": 958116655, "lat": 51.7602915, "lon": -1.2094179}, {"type": "node", "id": 958116702, "lat": 51.7603248, "lon": -1.209298}, {"type": "node", "id": 958116928, "lat": 51.7604298, "lon": -1.2095184}, {"type": "node", "id": 958116976, "lat": 51.7608, "lon": -1.2103286}, {"type": "node", "id": 958117126, "lat": 51.7609853, "lon": -1.2103255}, {"type": "node", "id": 979455260, "lat": 51.7505132, "lon": -1.2445209, "tags": {"addr:housename": "Waynflete Building", "addr:housenumber": "1-8", "addr:postcode": "OX4 1DS", "addr:street": "St Clements Street", "brand": "Sainsbury's Local", "brand:wikidata": "Q13218434", "brand:wikipedia": "en:Sainsbury's Local", "fhrs:id": "395980", "name": "Sainsbury's Local", "opening_hours": "Mo-Su 07:00-23:00", "phone": "+44 1865 448320", "shop": "convenience", "website": "https://stores.sainsburys.co.uk/4938/oxford-st-clements-local"}}, {"type": "node", "id": 1024074467, "lat": 51.7221747, "lon": -1.2317877}, {"type": "node", "id": 1024074683, "lat": 51.7213941, "lon": -1.2314583}, {"type": "node", "id": 1088414652, "lat": 51.7939668, "lon": -1.282873}, {"type": "node", "id": 1088415120, "lat": 51.7938735, "lon": -1.2828919}, {"type": "node", "id": 1088415176, "lat": 51.7939379, "lon": -1.2828583}, {"type": "node", "id": 1088415245, "lat": 51.7939547, "lon": -1.2829353}, {"type": "node", "id": 1088415466, "lat": 51.7938338, "lon": -1.2830966}, {"type": "node", "id": 1088415578, "lat": 51.7939262, "lon": -1.2829187}, {"type": "node", "id": 1141444841, "lat": 51.7468998, "lon": -1.2031366}, {"type": "node", "id": 1141444857, "lat": 51.7469372, "lon": -1.2032852}, {"type": "node", "id": 1184683540, "lat": 51.7622252, "lon": -1.2633495, "tags": {"addr:city": "Oxford", "addr:housenumber": "61a", "addr:postcode": "OX2 6HJ", "addr:street": "Woodstock Road", "check_date": "2025-06-15", "check_date:diet:halal": "2025-06-15", "check_date:diet:kosher": "2025-06-15", "check_date:opening_hours": "2025-06-15", "diet:halal": "no", "diet:kosher": "no", "fhrs:id": "269495", "name": "East West Provisions", "opening_hours": "Mo-Sa 08:00-20:00; Su 10:00-19:00", "shop": "convenience", "source": "survey", "source:addr:postcode": "FHRS Open Data", "wheelchair": "yes"}}, {"type": "node", "id": 1184683559, "lat": 51.7622816, "lon": -1.2634102, "tags": {"addr:city": "Oxford", "addr:housenumber": "65", "addr:postcode": "OX2 6HJ", "addr:street": "Woodstock Road", "check_date": "2023-07-30", "fhrs:id": "269497", "name": "Court Candy Shop", "shop": "convenience", "source": "survey", "source:addr:postcode": "FHRS Open Data"}}, {"type": "node", "id": 1207449531, "lat": 51.7478682, "lon": -1.237477, "tags": {"addr:housenumber": "134b", "addr:postcode": "OX4 1JE", "addr:street": "Cowley Road", "brand": "Sainsbury's Local", "brand:wikidata": "Q13218434", "brand:wikipedia": "en:Sainsbury's Local", "fhrs:id": "929912", "name": "Sainsbury's Local", "opening_hours": "Mo-Su 07:00-23:00", "shop": "convenience", "website": "https://stores.sainsburys.co.uk/4682/oxford-cowley-road-local"}}, {"type": "node", "id": 1238709333, "lat": 51.7352058, "lon": -1.215534}, {"type": "node", "id": 1248678929, "lat": 51.7395596, "lon": -1.2262358, "tags": {"addr:housenumber": "112", "addr:street": "Cricket Road", "name": "M.A. News & Halal Meat Centre", "shop": "convenience", "source": "local_knowledge"}}, {"type": "node", "id": 1273289097, "lat": 51.7593686, "lon": -1.2656579}, {"type": "node", "id": 1273289104, "lat": 51.7614065, "lon": -1.2681804}, {"type": "node", "id": 1273289189, "lat": 51.7613236, "lon": -1.2681405}, {"type": "node", "id": 1273289207, "lat": 51.7593907, "lon": -1.2657063}, {"type": "node", "id": 1273289210, "lat": 51.7613454, "lon": -1.2681543}, {"type": "node", "id": 1273289310, "lat": 51.7593465, "lon": -1.2656277}, {"type": "node", "id": 1273289404, "lat": 51.7613838, "lon": -1.2680131}, {"type": "node", "id": 1273289431, "lat": 51.7593719, "lon": -1.2657421}, {"type": "node", "id": 1273289434, "lat": 51.7614161, "lon": -1.2680608}, {"type": "node", "id": 1273289492, "lat": 51.7595792, "lon": -1.2656087}, {"type": "node", "id": 1273289495, "lat": 51.7613977, "lon": -1.2682189}, {"type": "node", "id": 1273289516, "lat": 51.7594488, "lon": -1.2654325}, {"type": "node", "id": 1273289694, "lat": 51.7614222, "lon": -1.2680398}, {"type": "node", "id": 1273289747, "lat": 51.7593442, "lon": -1.2657044}, {"type": "node", "id": 1273289823, "lat": 51.7594447, "lon": -1.2654411}, {"type": "node", "id": 1273289843, "lat": 51.7595365, "lon": -1.2656903}, {"type": "node", "id": 1273289849, "lat": 51.7613486, "lon": -1.2682947}, {"type": "node", "id": 1273289894, "lat": 51.759462, "lon": -1.2654504, "tags": {"amenity": "atm", "cash_in": "no", "check_date": "2024-03-12", "indoor": "no", "operator": "Bank Machine"}}, {"type": "node", "id": 1273289928, "lat": 51.7595141, "lon": -1.2655208, "tags": {"entrance": "yes"}}, {"type": "node", "id": 1273290038, "lat": 51.7613893, "lon": -1.2681693}, {"type": "node", "id": 1273290172, "lat": 51.7593851, "lon": -1.2655533}, {"type": "node", "id": 1273290204, "lat": 51.7595224, "lon": -1.2656711}, {"type": "node", "id": 1273290208, "lat": 51.7612911, "lon": -1.2682249}, {"type": "node", "id": 1273290248, "lat": 51.7594567, "lon": -1.2657965}, {"type": "node", "id": 1273290292, "lat": 51.7595727, "lon": -1.2655999, "tags": {"addr:housenumber": "43A", "addr:street": "Walton Street", "entrance": "yes"}}, {"type": "node", "id": 1288100991, "lat": 51.7524288, "lon": -1.2559202}, {"type": "node", "id": 1288101036, "lat": 51.7523167, "lon": -1.2559043}, {"type": "node", "id": 1288101075, "lat": 51.7525236, "lon": -1.2559157}, {"type": "node", "id": 1340112084, "lat": 51.7886013, "lon": -1.2818943, "tags": {"addr:city": "Oxford", "addr:postcode": "OX2 8JP", "addr:street": "Woodstock Road", "brand": "M&S Simply Food", "brand:wikidata": "Q714491", "check_date": "2024-07-21", "check_date:opening_hours": "2024-07-21", "contact:website": "https://www.marksandspencer.com/stores/woodstock-bp-309", "fhrs:id": "269508", "name": "M&S Simply Food", "not:addr:postcode": "OX2 8JD", "opening_hours": "Mo-Su 00:00-24:00", "shop": "convenience", "source": "gps_survey;Bing", "source:addr": "FHRS Open Data", "source:addr:postcode": "ons_uprn_lookup"}}, {"type": "node", "id": 1340334413, "lat": 51.7939157, "lon": -1.2831334}, {"type": "node", "id": 1340334421, "lat": 51.7939534, "lon": -1.2829384}, {"type": "node", "id": 1340334430, "lat": 51.7939154, "lon": -1.283138}, {"type": "node", "id": 1367086882, "lat": 51.7413373, "lon": -1.23014, "tags": {"addr:city": "Oxford", "addr:housenumber": "147-151", "addr:postcode": "OX4 3AZ", "addr:street": "Howard Street", "alt_name": "Everest Nepalese", "amenity": "restaurant", "check_date": "2025-06-15", "cuisine": "nepalese;indian", "delivery": "yes", "fhrs:id": "268804", "name": "Everest Nepalese Restaurant And Bar", "opening_hours": "Mo-Su 17:30-22:30", "opening_hours:url": "https://everest-nepalese.co.uk/", "phone": "+44 1865 251555", "reservation": "yes", "reservation:website": "https://web.dojo.app/create_booking/vendor/r6Byk40ZNwKhXxXxd8KYNeYr8T4SnFNuH7VpRCSIaRQ_restaurant", "takeaway": "yes", "website": "https://everest-nepalese.co.uk/"}}, {"type": "node", "id": 1377888060, "lat": 51.7360024, "lon": -1.2400575}, {"type": "node", "id": 1377888061, "lat": 51.7359803, "lon": -1.2401206}, {"type": "node", "id": 1377888062, "lat": 51.7359239, "lon": -1.2400691}, {"type": "node", "id": 1380327241, "lat": 51.7444959, "lon": -1.2302027, "tags": {"addr:city": "Oxford", "addr:housenumber": "157", "addr:postcode": "OX4 1RN", "addr:street": "Magdalen Road", "fhrs:id": "268978", "name": "Wasim's Regency", "shop": "convenience"}}, {"type": "node", "id": 1398828104, "lat": 51.7524671, "lon": -1.2562717}, {"type": "node", "id": 1419028785, "lat": 51.7605459, "lon": -1.2110807}, {"type": "node", "id": 1419028786, "lat": 51.7605745, "lon": -1.2109615}, {"type": "node", "id": 1419028787, "lat": 51.7606448, "lon": -1.2111426}, {"type": "node", "id": 1419028791, "lat": 51.7607096, "lon": -1.2108726}, {"type": "node", "id": 1419182133, "lat": 51.7606473, "lon": -1.2111324}, {"type": "node", "id": 1419182138, "lat": 51.7607212, "lon": -1.2108807}, {"type": "node", "id": 1419182140, "lat": 51.7608381, "lon": -1.2109523}, {"type": "node", "id": 1422250367, "lat": 51.7688153, "lon": -1.2236653}, {"type": "node", "id": 1422250376, "lat": 51.7688552, "lon": -1.2235945}, {"type": "node", "id": 1422250378, "lat": 51.7688936, "lon": -1.223857}, {"type": "node", "id": 1422250385, "lat": 51.7689415, "lon": -1.2238059}, {"type": "node", "id": 1426375437, "lat": 51.7524911, "lon": -1.2532889, "tags": {"addr:city": "Oxford", "addr:housenumber": "92-94", "addr:postcode": "OX1 4BJ", "addr:street": "High Street", "alt_name": "Quod Brasserie And Bar", "amenity": "restaurant", "check_date": "2025-06-15", "cuisine": "british;european", "delivery": "no", "fhrs:id": "268724", "name": "Quod Restaurant & Bar", "opening_hours": "Mo-Su 07:00-23:00", "opening_hours:url": "https://www.quod.co.uk/book-a-table/", "phone": "+44 1865 202505", "reservation": "yes", "reservation:website": "https://www.quod.co.uk/book-a-table/", "short_name": "Quod", "takeaway": "no", "toilets": "yes", "toilets:wheelchair": "yes", "website": "https://www.quod.co.uk/", "wheelchair": "yes"}}, {"type": "node", "id": 1435618455, "lat": 51.7675555, "lon": -1.2323851}, {"type": "node", "id": 1435618458, "lat": 51.7675574, "lon": -1.2324357}, {"type": "node", "id": 1435618468, "lat": 51.7675846, "lon": -1.232334}, {"type": "node", "id": 1435618475, "lat": 51.7676153, "lon": -1.2325288}, {"type": "node", "id": 1435618490, "lat": 51.767645, "lon": -1.2324286}, {"type": "node", "id": 1435618492, "lat": 51.7676604, "lon": -1.2324561}, {"type": "node", "id": 1435618549, "lat": 51.7678953, "lon": -1.2315907}, {"type": "node", "id": 1435618552, "lat": 51.7679149, "lon": -1.2316225, "tags": {"entrance": "main"}}, {"type": "node", "id": 1435618559, "lat": 51.7679763, "lon": -1.2317294}, {"type": "node", "id": 1435618560, "lat": 51.7679843, "lon": -1.2314449}, {"type": "node", "id": 1435618561, "lat": 51.7679898, "lon": -1.2317035}, {"type": "node", "id": 1435618567, "lat": 51.7680351, "lon": -1.2316292}, {"type": "node", "id": 1435618573, "lat": 51.7680739, "lon": -1.2315279}, {"type": "node", "id": 1442726050, "lat": 51.7657869, "lon": -1.2346124}, {"type": "node", "id": 1442726052, "lat": 51.7658097, "lon": -1.2346916}, {"type": "node", "id": 1442726055, "lat": 51.7658746, "lon": -1.2349405}, {"type": "node", "id": 1442726070, "lat": 51.7659456, "lon": -1.235157}, {"type": "node", "id": 1442726072, "lat": 51.7659399, "lon": -1.2344004}, {"type": "node", "id": 1442726074, "lat": 51.765945, "lon": -1.2344183}, {"type": "node", "id": 1442726079, "lat": 51.7660726, "lon": -1.2347649}, {"type": "node", "id": 1442726080, "lat": 51.7660767, "lon": -1.2347782}, {"type": "node", "id": 1442726081, "lat": 51.7660868, "lon": -1.2349492}, {"type": "node", "id": 1442726082, "lat": 51.7661089, "lon": -1.2344664}, {"type": "node", "id": 1442726088, "lat": 51.76611, "lon": -1.2350249}, {"type": "node", "id": 1442726095, "lat": 51.7661746, "lon": -1.2346831}, {"type": "node", "id": 1442726099, "lat": 51.7661897, "lon": -1.2347331, "tags": {"amenity": "atm", "cash_in": "yes", "check_date": "2024-11-03", "fee": "no", "operator": "Co-operative Bank"}}, {"type": "node", "id": 1442726100, "lat": 51.7662223, "lon": -1.2348405}, {"type": "node", "id": 1442726101, "lat": 51.7676526, "lon": -1.2324422, "tags": {"amenity": "atm", "brand": "Nationwide", "brand:wikidata": "Q846735", "fee": "no", "operator": "Nationwide", "operator:wikidata": "Q846735"}}, {"type": "node", "id": 1445308863, "lat": 51.7593264, "lon": -1.2356362}, {"type": "node", "id": 1445308865, "lat": 51.7593311, "lon": -1.2355538}, {"type": "node", "id": 1445308873, "lat": 51.7593547, "lon": -1.2357074}, {"type": "node", "id": 1445308875, "lat": 51.7593585, "lon": -1.2356411}, {"type": "node", "id": 1445308877, "lat": 51.7593984, "lon": -1.235714}, {"type": "node", "id": 1445308880, "lat": 51.7594074, "lon": -1.2355652}, {"type": "node", "id": 1452655451, "lat": 51.7593996, "lon": -1.2356934}, {"type": "node", "id": 1452655478, "lat": 51.7594068, "lon": -1.2355757}, {"type": "node", "id": 1458635280, "lat": 51.7591573, "lon": -1.2124841}, {"type": "node", "id": 1458635283, "lat": 51.759199, "lon": -1.2121493}, {"type": "node", "id": 1458635316, "lat": 51.7593066, "lon": -1.2125274}, {"type": "node", "id": 1458635323, "lat": 51.7593229, "lon": -1.2123298}, {"type": "node", "id": 1458635332, "lat": 51.7593412, "lon": -1.2121885}, {"type": "node", "id": 1458635378, "lat": 51.7594672, "lon": -1.2123666}, {"type": "node", "id": 1458635411, "lat": 51.7595955, "lon": -1.2126101}, {"type": "node", "id": 1458635418, "lat": 51.7596558, "lon": -1.212422}, {"type": "node", "id": 1458635513, "lat": 51.7598802, "lon": -1.2124482}, {"type": "node", "id": 1458635526, "lat": 51.7599223, "lon": -1.2122992}, {"type": "node", "id": 1458635556, "lat": 51.7600674, "lon": -1.2125856}, {"type": "node", "id": 1458635560, "lat": 51.7600754, "lon": -1.212412}, {"type": "node", "id": 1461483814, "lat": 51.759508, "lon": -1.2145539}, {"type": "node", "id": 1461483816, "lat": 51.7595502, "lon": -1.2142582, "tags": {"amenity": "atm", "brand": "Santander", "brand:wikidata": "Q7420065", "fee": "no", "name": "Santander", "operator": "Santander", "operator:wikidata": "Q7420065", "source": "survey"}}, {"type": "node", "id": 1461483822, "lat": 51.7595545, "lon": -1.2142286}, {"type": "node", "id": 1461483823, "lat": 51.7596327, "lon": -1.2146005}, {"type": "node", "id": 1461483825, "lat": 51.7596792, "lon": -1.2142755}, {"type": "node", "id": 1472990860, "lat": 51.7215457, "lon": -1.2315311}, {"type": "node", "id": 1472990862, "lat": 51.7218627, "lon": -1.2316525, "tags": {"amenity": "atm", "cash_in": "no", "check_date": "2023-11-27", "operator": "Sainsbury's Bank"}}, {"type": "node", "id": 1472990863, "lat": 51.7215606, "lon": -1.2314365}, {"type": "node", "id": 1472990864, "lat": 51.7217104, "lon": -1.2315803}, {"type": "node", "id": 1472990866, "lat": 51.7217234, "lon": -1.2315012}, {"type": "node", "id": 1491571035, "lat": 51.7596722, "lon": -1.2105124}, {"type": "node", "id": 1491571052, "lat": 51.7597107, "lon": -1.2105396}, {"type": "node", "id": 1491571062, "lat": 51.7597364, "lon": -1.2102748}, {"type": "node", "id": 1491571078, "lat": 51.7597749, "lon": -1.210302}, {"type": "node", "id": 1491571235, "lat": 51.7602884, "lon": -1.2081767}, {"type": "node", "id": 1491571240, "lat": 51.7603054, "lon": -1.2083611}, {"type": "node", "id": 1491571244, "lat": 51.7603198, "lon": -1.2085169}, {"type": "node", "id": 1491571258, "lat": 51.760347, "lon": -1.2082196}, {"type": "node", "id": 1491571264, "lat": 51.7603851, "lon": -1.2105612}, {"type": "node", "id": 1491571270, "lat": 51.7603996, "lon": -1.2104997}, {"type": "node", "id": 1491571275, "lat": 51.7603881, "lon": -1.2089601}, {"type": "node", "id": 1491571289, "lat": 51.7604303, "lon": -1.2103703}, {"type": "node", "id": 1491571297, "lat": 51.7604047, "lon": -1.2089006}, {"type": "node", "id": 1491571305, "lat": 51.7604299, "lon": -1.2086414}, {"type": "node", "id": 1491571315, "lat": 51.7604455, "lon": -1.2103059}, {"type": "node", "id": 1491571319, "lat": 51.7604466, "lon": -1.2105993}, {"type": "node", "id": 1491571321, "lat": 51.7604394, "lon": -1.208607}, {"type": "node", "id": 1491571326, "lat": 51.7604447, "lon": -1.2088828}, {"type": "node", "id": 1491571329, "lat": 51.760583, "lon": -1.2106131}, {"type": "node", "id": 1491571330, "lat": 51.7604492, "lon": -1.2088665}, {"type": "node", "id": 1491571351, "lat": 51.760607, "lon": -1.2104795}, {"type": "node", "id": 1491571358, "lat": 51.7605171, "lon": -1.2103502}, {"type": "node", "id": 1491571401, "lat": 51.7605405, "lon": -1.2087234}, {"type": "node", "id": 1491571408, "lat": 51.7605685, "lon": -1.2106746}, {"type": "node", "id": 1491571410, "lat": 51.7605585, "lon": -1.2090838}, {"type": "node", "id": 1491571411, "lat": 51.7605487, "lon": -1.2089954}, {"type": "node", "id": 1491571432, "lat": 51.7605787, "lon": -1.2087464}, {"type": "node", "id": 1491571435, "lat": 51.7605618, "lon": -1.2089483}, {"type": "node", "id": 1491571437, "lat": 51.7606223, "lon": -1.2104152}, {"type": "node", "id": 1491571439, "lat": 51.7605773, "lon": -1.2090161}, {"type": "node", "id": 1491571442, "lat": 51.7605905, "lon": -1.208736}, {"type": "node", "id": 1491571445, "lat": 51.7606061, "lon": -1.2087108, "tags": {"entrance": "main"}}, {"type": "node", "id": 1491571458, "lat": 51.7606117, "lon": -1.2086826}, {"type": "node", "id": 1491571506, "lat": 51.7607016, "lon": -1.2083301}, {"type": "node", "id": 1491571516, "lat": 51.7607058, "lon": -1.2083341, "tags": {"amenity": "atm", "cash_in": "no", "fee": "no", "indoor": "no", "operator": "Co-operative Bank"}}, {"type": "node", "id": 1491571519, "lat": 51.7607121, "lon": -1.2083373}, {"type": "node", "id": 1491571521, "lat": 51.7607354, "lon": -1.2082487}, {"type": "node", "id": 1492559696, "lat": 51.7641519, "lon": -1.2615519}, {"type": "node", "id": 1540592172, "lat": 51.7518719, "lon": -1.2564373, "tags": {"addr:city": "Oxford", "addr:housename": "Kemp Hall Passage", "addr:housenumber": "130a", "addr:postcode": "OX1 4DH", "addr:street": "High Street", "amenity": "restaurant", "cuisine": "thai", "delivery": "yes", "fhrs:id": "268728", "name": "Chiang Mai Kitchen", "name:en": "Chiang Mai Kitchen", "name:th": "\u0e04\u0e23\u0e31\u0e27\u0e40\u0e0a\u0e35\u0e22\u0e07\u0e43\u0e2b\u0e21\u0e48", "opening_hours": "Mo-Sa 12:00-14:30,17:00-22:00; Su 12:00-14:30,17:00-21:30", "opening_hours:url": "https://www.chiangmaikitchen.co.uk/contact", "phone": "+44 1865 202233", "reservation": "yes", "reservation:website": "https://web.dojo.app/create_booking/vendor/ia1Y3PaucNfCNd8ji6P1QpQHdS6INS5kM4hv6yX2mvA_restaurant", "takeaway": "yes", "website": "https://www.chiangmaikitchen.co.uk/", "wheelchair": "limited"}}, {"type": "node", "id": 1594510605, "lat": 51.7426314, "lon": -1.234152}, {"type": "node", "id": 1594510635, "lat": 51.7424799, "lon": -1.2339891}, {"type": "node", "id": 1707797360, "lat": 51.7415941, "lon": -1.1972147}, {"type": "node", "id": 1707797390, "lat": 51.7413084, "lon": -1.1968097}, {"type": "node", "id": 1707797395, "lat": 51.7414346, "lon": -1.197499}, {"type": "node", "id": 1707797402, "lat": 51.7411523, "lon": -1.1971047}, {"type": "node", "id": 1708321052, "lat": 51.7338077, "lon": -1.2172131}, {"type": "node", "id": 1708321056, "lat": 51.7336595, "lon": -1.2165556}, {"type": "node", "id": 1708321057, "lat": 51.7341134, "lon": -1.2168023}, {"type": "node", "id": 1708321065, "lat": 51.7340053, "lon": -1.2173205}, {"type": "node", "id": 1708321092, "lat": 51.7335514, "lon": -1.2170738}, {"type": "node", "id": 1708364795, "lat": 51.7210817, "lon": -1.2312459}, {"type": "node", "id": 1708364800, "lat": 51.7211058, "lon": -1.2311842}, {"type": "node", "id": 1708364803, "lat": 51.7211, "lon": -1.2313451}, {"type": "node", "id": 1708364805, "lat": 51.7210961, "lon": -1.2311661}, {"type": "node", "id": 1708364807, "lat": 51.7210792, "lon": -1.2311828}, {"type": "node", "id": 1708364826, "lat": 51.7211681, "lon": -1.2312097}, {"type": "node", "id": 1708364859, "lat": 51.7211598, "lon": -1.231278}, {"type": "node", "id": 1708364862, "lat": 51.7211772, "lon": -1.2312041}, {"type": "node", "id": 1708364872, "lat": 51.7211648, "lon": -1.2313344}, {"type": "node", "id": 1708364902, "lat": 51.7211789, "lon": -1.2312767}, {"type": "node", "id": 1709245984, "lat": 51.7484504, "lon": -1.2394375, "tags": {"addr:city": "Oxford", "addr:housenumber": "100", "addr:postcode": "OX4 1JE", "addr:street": "Cowley Road", "amenity": "restaurant", "check_date": "2023-09-24", "cuisine": "sushi;japanese", "delivery": "yes", "name": "TABERU Japanese Takeaway", "opening_hours": "closed", "phone": "+44 1865 434100", "reservation": "no", "takeaway": "yes", "website": "https://taberuoxford.co.uk/about"}}, {"type": "node", "id": 1718362868, "lat": 51.7605952, "lon": -1.2111115, "tags": {"entrance": "yes"}}, {"type": "node", "id": 1718362871, "lat": 51.7608618, "lon": -1.2108513, "tags": {"entrance": "yes"}}, {"type": "node", "id": 1736430859, "lat": 51.7425553, "lon": -1.2348717, "tags": {"addr:city": "Oxford", "addr:housenumber": "38", "addr:postcode": "OX4 1RB", "addr:street": "Magdalen Road", "amenity": "restaurant", "cuisine": "thai", "delivery": "no", "fhrs:id": "621598", "name": "Elle's Deli & Oli's Thai", "old_name": "Oli's Thai", "opening_hours": "Tu 11:30-15:00,18:00-20:30; Th-Sa 11:30-15:00", "opening_hours:url": "https://ellesdeli.com/olis-thai", "phone": "+44 1865 790223", "reservation": "no", "takeaway": "yes", "website": "https://ellesdeli.com/"}}, {"type": "node", "id": 1746117527, "lat": 51.7425707, "lon": -1.23484, "tags": {"addr:city": "Oxford", "addr:housenumber": "37", "addr:street": "Magdalen Road", "fhrs:id": "268974", "name": "Magdalen Stores", "shop": "convenience"}}, {"type": "node", "id": 1757003559, "lat": 51.7518789, "lon": -1.2608507, "tags": {"addr:city": "Oxford", "addr:housenumber": "11", "addr:postcode": "OX1 1LT", "addr:street": "New Road", "fhrs:id": "977892", "name": "Castle News", "shop": "convenience"}}, {"type": "node", "id": 1774465921, "lat": 51.7692464, "lon": -1.2533747}, {"type": "node", "id": 1834066174, "lat": 51.7335187, "lon": -1.2188058}, {"type": "node", "id": 1834072200, "lat": 51.7532356, "lon": -1.2660489, "tags": {"addr:city": "Oxford", "addr:housenumber": "6-9", "addr:postcode": "OX1 2EW", "addr:street": "Hythe Bridge Street", "amenity": "restaurant", "cuisine": "thai", "delivery": "yes", "fhrs:id": "1810467", "name": "Bangkok House", "opening_hours": "Mo-Su 12:00-15:00,17:00-22:00", "opening_hours:url": "https://www.bangkokhouse.info/reservations", "phone": "+44 1865 642876", "reservation": "yes", "reservation:website": "https://www.bangkokhouse.info/reservations", "takeaway": "yes", "website": "https://www.bangkokhouse.info/"}}, {"type": "node", "id": 1890534727, "lat": 51.7535887, "lon": -1.2605604, "tags": {"addr:city": "Oxford", "addr:housenumber": "33-35", "addr:postcode": "OX1 2AY", "addr:street": "George Street", "amenity": "restaurant", "branch": "Oxford", "brand": "YORI", "brand:wikidata": "Q121945336", "capacity": "90", "cuisine": "korean;barbecue", "delivery": "yes", "fhrs:id": "1693341", "level": "0", "name": "YORI", "opening_hours": "Mo-Th 11:30-23:00; Fr-Sa 11:30-23:30; Su 11:30-22:30", "phone": "+44 1865 535794", "reservation": "yes", "reservation:website": "https://web.dojo.app/create_booking/vendor/m1w3pOfOk1qaJxsJDqndX5Z6Nb49_MUXmV1VNc8AonU_restaurant", "takeaway": "yes", "website": "https://yoriuk.com/"}}, {"type": "node", "id": 1925168632, "lat": 51.750433, "lon": -1.2604226, "tags": {"addr:city": "Oxford", "addr:housename": "Westgate Centre", "addr:postcode": "OX1 1PA", "addr:street": "Westgate", "addr:unit": "21", "branch": "Oxford Superstore", "brand": "Sainsbury's", "brand:wikidata": "Q152096", "brand:wikipedia": "en:Sainsbury's", "check_date": "2023-01-25", "description": "Supermarket", "fhrs:id": "269464", "level": "1", "level:ref": "UG", "name": "Sainsbury's", "opening_hours": "Mo-Sa 07:00-20:00; Su 11:00-17:00", "phone": "+44 1865 722179", "ref": "0730", "shop": "supermarket", "website": "https://stores.sainsburys.co.uk/0730/oxford"}}, {"type": "node", "id": 2104757139, "lat": 51.7492464, "lon": -1.2419089, "tags": {"addr:city": "Oxford", "addr:housenumber": "47-49", "addr:postcode": "OX4 1HP", "addr:street": "Cowley Road", "amenity": "restaurant", "check_date": "2024-06-25", "cuisine": "persian", "delivery": "yes", "fhrs:id": "1426985", "name": "Shiraz Restaurant", "opening_hours": "Mo-Su 12:00-23:00", "opening_hours:url": "https://www.shirazpersian.co.uk/oxford/contact-us.html", "phone": "+44 1865 920002", "reservation": "yes", "reservation:website": "https://www.shirazpersian.co.uk/oxford/", "takeaway": "yes", "website": "https://www.shirazpersian.co.uk/oxford/"}}, {"type": "node", "id": 2141564264, "lat": 51.7425221, "lon": -1.2342079}, {"type": "node", "id": 2141564274, "lat": 51.7425819, "lon": -1.2342722}, {"type": "node", "id": 2143987462, "lat": 51.7427118, "lon": -1.2339983, "tags": {"addr:city": "Oxford", "addr:housenumber": "109", "addr:postcode": "OX4 1RQ", "addr:street": "Magdalen Road", "amenity": "restaurant", "cuisine": "tibetan", "delivery": "yes", "diet:vegan": "yes", "diet:vegetarian": "yes", "email": "tastetibet@gmail.com", "fhrs:id": "1300124", "name": "Taste Tibet", "opening_hours": "We-Fr 17:00-21:30; Sa,Su 12:00-15:00,17:00-21:30", "opening_hours:url": "https://tastetibet.com/contact/", "phone": "+44 1865 499318", "reservation": "no", "takeaway": "no", "website": "https://www.tastetibet.com/"}}, {"type": "node", "id": 2308821508, "lat": 51.7345433, "lon": -1.2507589}, {"type": "node", "id": 2308821512, "lat": 51.7345331, "lon": -1.2507533}, {"type": "node", "id": 2308821514, "lat": 51.7345232, "lon": -1.2508009}, {"type": "node", "id": 2308821525, "lat": 51.7345777, "lon": -1.2505938}, {"type": "node", "id": 2308821546, "lat": 51.7344777, "lon": -1.2507762}, {"type": "node", "id": 2308821551, "lat": 51.7344584, "lon": -1.2506171}, {"type": "node", "id": 2308821553, "lat": 51.7344715, "lon": -1.2505542}, {"type": "node", "id": 2308821557, "lat": 51.7344974, "lon": -1.2505682}, {"type": "node", "id": 2308821558, "lat": 51.7345073, "lon": -1.2505555}, {"type": "node", "id": 2308821568, "lat": 51.7345535, "lon": -1.2505806, "tags": {"addr:street": "Abingdon Road", "entrance": "main"}}, {"type": "node", "id": 2308821570, "lat": 51.7345055, "lon": -1.2506427}, {"type": "node", "id": 2328575735, "lat": 51.7345693, "lon": -1.2506341}, {"type": "node", "id": 2346686086, "lat": 51.7623617, "lon": -1.1957252}, {"type": "node", "id": 2351674588, "lat": 51.7290804, "lon": -1.2256527}, {"type": "node", "id": 2351674589, "lat": 51.7288933, "lon": -1.2253354}, {"type": "node", "id": 2351674590, "lat": 51.7291161, "lon": -1.2254276}, {"type": "node", "id": 2351674591, "lat": 51.7288576, "lon": -1.2255604}, {"type": "node", "id": 2358309111, "lat": 51.762274, "lon": -1.1956446}, {"type": "node", "id": 2358309112, "lat": 51.762289, "lon": -1.195478}, {"type": "node", "id": 2358309122, "lat": 51.7625266, "lon": -1.1948596}, {"type": "node", "id": 2358309124, "lat": 51.7625429, "lon": -1.1950808}, {"type": "node", "id": 2358309127, "lat": 51.7625724, "lon": -1.1948508}, {"type": "node", "id": 2358309134, "lat": 51.7626255, "lon": -1.1950649}, {"type": "node", "id": 2359461098, "lat": 51.7351014, "lon": -1.2156936}, {"type": "node", "id": 2359461100, "lat": 51.7351051, "lon": -1.2156494}, {"type": "node", "id": 2359461109, "lat": 51.7351168, "lon": -1.215676}, {"type": "node", "id": 2359461112, "lat": 51.7351221, "lon": -1.2157404}, {"type": "node", "id": 2359461129, "lat": 51.7352381, "lon": -1.2156074}, {"type": "node", "id": 2375025088, "lat": 51.7642176, "lon": -1.2615887}, {"type": "node", "id": 2375082752, "lat": 51.764259, "lon": -1.2611426}, {"type": "node", "id": 2375082754, "lat": 51.7642855, "lon": -1.2608415}, {"type": "node", "id": 2392043906, "lat": 51.7703909, "lon": -1.2589225, "tags": {"addr:city": "Oxford", "addr:housename": "The Chilterns", "addr:housenumber": "99", "addr:postcode": "OX1 2DF", "addr:street": "Gloucester Green", "alt_name": "The Spires Cafe & Restaurant", "amenity": "restaurant", "contact:instagram": "https://www.instagram.com/thespirescafe/", "cuisine": "european", "delivery": "yes", "email": "thespirescafe@gmail.com", "fhrs:id": "1497565", "name": "The Spires Restaurant", "opening_hours": "Mo-Th 07:30-20:00; Fr,Su 07:30-21:00; Sa 07:15-21:00", "opening_hours:url": "https://www.thespirescafe.com/", "phone": "+44 1865 241218", "reservation": "yes", "reservation:website": "https://www.thespirescafe.com/reservations", "takeaway": "no", "website": "https://www.thespirescafe.com/"}}, {"type": "node", "id": 2430652628, "lat": 51.7556372, "lon": -1.2599083, "tags": {"addr:city": "Oxford", "addr:housenumber": "34-36", "addr:postcode": "OX1 2PG", "addr:street": "Beaumont Street", "alt_name": "Ashmolean Rooftop Restaurant And Cafe", "amenity": "restaurant", "check_date": "2023-06-28", "cuisine": "european;british", "delivery": "no", "email": "ashmolean@benugo.com", "fhrs:id": "268407", "level": "4", "name": "Ashmolean Rooftop Restaurant", "opening_hours": "Mo-Su 11:30-17:00", "opening_hours:url": "https://www.benugo.com/sites/restaurants/rooftop-restaurant/", "phone": "+44 1865 553823", "reservation": "yes", "reservation:website": "https://www.benugo.com/sites/restaurants/rooftop-restaurant/", "takeaway": "no", "website": "https://www.ashmolean.org/cafe-and-restaurant"}}, {"type": "node", "id": 2446133474, "lat": 51.7581639, "lon": -1.2635572, "tags": {"brand": "The Co-operative Food", "brand:wikidata": "Q107617274", "fhrs:id": "739532", "name": "The Co-operative Food", "opening_hours": "Mo-Su 07:00-22:00", "operator": "Midcounties Co-operative", "operator:wikidata": "Q6841138", "shop": "convenience"}}, {"type": "node", "id": 2486161582, "lat": 51.7330901, "lon": -1.2184237}, {"type": "node", "id": 2486161588, "lat": 51.7329394, "lon": -1.2191463}, {"type": "node", "id": 2520011106, "lat": 51.7333341, "lon": -1.2247932}, {"type": "node", "id": 2520011108, "lat": 51.7333571, "lon": -1.2251502}, {"type": "node", "id": 2520011110, "lat": 51.7333795, "lon": -1.2249266}, {"type": "node", "id": 2520011113, "lat": 51.7333824, "lon": -1.2250056}, {"type": "node", "id": 2520011118, "lat": 51.7333942, "lon": -1.2247874}, {"type": "node", "id": 2520011121, "lat": 51.7333993, "lon": -1.2249247}, {"type": "node", "id": 2520011124, "lat": 51.7334061, "lon": -1.2250033}, {"type": "node", "id": 2520011126, "lat": 51.7334113, "lon": -1.225145}, {"type": "node", "id": 2522972663, "lat": 51.7284154, "lon": -1.2183806}, {"type": "node", "id": 2522972666, "lat": 51.7284217, "lon": -1.2184695}, {"type": "node", "id": 2522972667, "lat": 51.7284379, "lon": -1.2181464}, {"type": "node", "id": 2522972668, "lat": 51.7284541, "lon": -1.2183733}, {"type": "node", "id": 2522972671, "lat": 51.7285116, "lon": -1.2181327}, {"type": "node", "id": 2529775685, "lat": 51.7461851, "lon": -1.2564971, "tags": {"addr:city": "Oxford", "addr:housename": "The Folly", "addr:housenumber": "1", "addr:postcode": "OX1 4LB", "addr:street": "Folly Bridge", "amenity": "restaurant", "contact:instagram": "https://www.instagram.com/the_folly/", "cuisine": "european", "delivery": "no", "email": "restaurant@the-folly.co.uk", "fhrs:id": "268780", "name": "The Folly", "opening_hours": "Mo-Th 11:00-22:30; Fr 11:00-23:00; Sa 10:00-23:00; Su 10:00-22:30", "opening_hours:url": "https://www.the-folly.co.uk/", "phone": "+44 1865 201293", "reservation": "yes", "reservation:website": "https://www.the-folly.co.uk/book-now", "source:addr:postcode": "FHRS Open Data", "takeaway": "no", "website": "https://www.the-folly.co.uk/"}}, {"type": "node", "id": 2578689406, "lat": 51.7453192, "lon": -1.2300521, "tags": {"addr:city": "Oxford", "addr:housenumber": "247", "addr:postcode": "OX4 1XG", "addr:street": "Cowley Road", "amenity": "restaurant", "check_date": "2025-06-15", "cuisine": "italian;pizza", "delivery": "yes", "email": "info@lasmorfiaoxford.com", "fhrs:id": "1385032", "name": "La Smorfia", "opening_hours": "Mo-Th 17:00-22:00; Fr-Su 10:00-22:00", "opening_hours:url": "https://lasmorfiaoxford.com/", "phone": "+44 7511 819633", "reservation": "yes", "reservation:website": "https://web.dojo.app/create_booking/vendor/FWfu3p99GWE75sbMKfYBV54r45J6FsOyZXc-oeKHqts_restaurant", "takeaway": "yes", "toilets": "yes", "toilets:access": "customers", "website": "https://lasmorfiaoxford.com/"}}, {"type": "node", "id": 2711044932, "lat": 51.7460233, "lon": -1.2725327}, {"type": "node", "id": 2711044933, "lat": 51.7460477, "lon": -1.2719475}, {"type": "node", "id": 2711044938, "lat": 51.7462997, "lon": -1.2725629}, {"type": "node", "id": 2711044941, "lat": 51.7463242, "lon": -1.2719776}, {"type": "node", "id": 2725379736, "lat": 51.739298, "lon": -1.2351173, "tags": {"addr:city": "Oxford", "addr:housenumber": "293", "addr:postcode": "OX4 4AQ", "addr:street": "Iffley Road", "fhrs:id": "1426986", "name": "Duhok News", "opening_hours": "06:00-21:00", "shop": "convenience"}}, {"type": "node", "id": 2823715109, "lat": 51.7784109, "lon": -1.2670171}, {"type": "node", "id": 2823715110, "lat": 51.7785055, "lon": -1.2670881}, {"type": "node", "id": 2826502151, "lat": 51.7610787, "lon": -1.2673159, "tags": {"addr:city": "Oxford", "addr:housenumber": "102", "addr:postcode": "OX2 6EB", "addr:street": "Walton Street", "amenity": "restaurant", "branch": "Jericho", "brand": "Mamma Mia", "check_date": "2023-07-30", "cuisine": "pizza;italian", "delivery": "yes", "fhrs:id": "269245", "name": "Mamma Mia", "opening_hours": "Mo-Th 17:00-22:00; Fr 12:00-15:00,17:00-22:00; Sa-Su 12:00-22:00", "opening_hours:url": "https://mammamiapizzeria.co.uk/contact.php", "phone": "+44 1865 311211", "reservation": "yes", "reservation:website": "https://mammamiapizzeria.co.uk/book-jericho.php", "takeaway": "yes", "website": "https://mammamiapizzeria.co.uk/"}}, {"type": "node", "id": 2934506678, "lat": 51.7174096, "lon": -1.196905}, {"type": "node", "id": 2934506689, "lat": 51.7175369, "lon": -1.1970441}, {"type": "node", "id": 2934506695, "lat": 51.7176019, "lon": -1.1970656}, {"type": "node", "id": 2995875322, "lat": 51.7700507, "lon": -1.2536967}, {"type": "node", "id": 3022200433, "lat": 51.7247071, "lon": -1.2329766, "tags": {"brand": "Premier", "brand:wikidata": "Q7240340", "fhrs:id": "268885", "name": "Premier Turna Supermarket", "shop": "convenience"}}, {"type": "node", "id": 3074706561, "lat": 51.7772177, "lon": -1.2645381}, {"type": "node", "id": 3074706562, "lat": 51.77711, "lon": -1.2644965}, {"type": "node", "id": 3074706563, "lat": 51.7771088, "lon": -1.2644728}, {"type": "node", "id": 3074706564, "lat": 51.7770158, "lon": -1.2644372}, {"type": "node", "id": 3074706565, "lat": 51.7770048, "lon": -1.264455}, {"type": "node", "id": 3074706566, "lat": 51.7767944, "lon": -1.2643759}, {"type": "node", "id": 3074706604, "lat": 51.7770636, "lon": -1.2644554, "tags": {"access": "customers", "entrance": "main"}}, {"type": "node", "id": 3076356918, "lat": 51.7773938, "lon": -1.263852}, {"type": "node", "id": 3076356919, "lat": 51.7772865, "lon": -1.2637834}, {"type": "node", "id": 3076356920, "lat": 51.777263, "lon": -1.2638988}, {"type": "node", "id": 3076356921, "lat": 51.7771367, "lon": -1.2638317}, {"type": "node", "id": 3076359351, "lat": 51.7770085, "lon": -1.2638559}, {"type": "node", "id": 3076359352, "lat": 51.7769375, "lon": -1.2638144}, {"type": "node", "id": 3137386569, "lat": 51.7462092, "lon": -1.2327669, "tags": {"addr:housenumber": "236-238", "addr:postcode": "OX4 1UH", "addr:street": "Cowley Road", "fhrs:id": "867887", "name": "Erdem Food Centre", "shop": "convenience"}}, {"type": "node", "id": 3139692508, "lat": 51.7459572, "lon": -1.2322131, "tags": {"addr:housenumber": "256", "addr:postcode": "OX4 1UH", "addr:street": "Cowley Road", "fhrs:id": "701759", "name": "Atif Superstore", "shop": "convenience"}}, {"type": "node", "id": 3217123785, "lat": 51.7519586, "lon": -1.2892774}, {"type": "node", "id": 3217123787, "lat": 51.7516166, "lon": -1.289397}, {"type": "node", "id": 3217123788, "lat": 51.7514809, "lon": -1.2891588}, {"type": "node", "id": 3217123790, "lat": 51.7514854, "lon": -1.2892307}, {"type": "node", "id": 3320076009, "lat": 51.7524661, "lon": -1.2488556, "tags": {"addr:city": "Oxford", "addr:housenumber": "59-60", "addr:postcode": "OX1 4AS", "addr:street": "High Street", "amenity": "restaurant", "contact:instagram": "https://www.instagram.com/ramenkorneroxford/", "cuisine": "japanese;ramen", "delivery": "no", "email": "info@ramenkorner.com", "fhrs:id": "1800544", "name": "Ramen Korner", "opening_hours": "Su-We 12:00-22:00; Th-Sa 12:00-22:30", "opening_hours:url": "https://www.ramenkorner.com/", "phone": "+44 1865 499902", "reservation": "no", "source": "https://www.ramenkorner.com/", "takeaway": "yes"}}, {"type": "node", "id": 3320076042, "lat": 51.7526084, "lon": -1.2496374, "tags": {"addr:city": "Oxford", "addr:housenumber": "49", "addr:street": "High Street", "check_date": "2023-09-24", "fhrs:id": "836598", "name": "Honey's of the High", "shop": "convenience"}}, {"type": "node", "id": 3321532353, "lat": 51.7516404, "lon": -1.2576671, "tags": {"addr:city": "Oxford", "addr:housenumber": "117-119", "addr:postcode": "OX1 1EA", "addr:street": "St Aldate's", "brand": "Sainsbury's Local", "brand:wikidata": "Q13218434", "brand:wikipedia": "en:Sainsbury's Local", "fhrs:id": "1015463", "name": "Sainsbury's Local", "opening_hours": "Mo-Su 07:00-23:00; PH off", "shop": "convenience", "source:addr": "FHRS Open Data"}}, {"type": "node", "id": 3321532360, "lat": 51.7536065, "lon": -1.2604707, "tags": {"addr:city": "Oxford", "addr:housenumber": "33", "addr:postcode": "OX1 2AY", "addr:street": "George Street", "check_date": "2024-04-21", "fhrs:id": "268624", "level": "0", "name": "Caspian News", "shop": "convenience", "source:addr:postcode": "FHRS Open Data"}}, {"type": "node", "id": 3321532661, "lat": 51.7536501, "lon": -1.2601521, "tags": {"addr:city": "Oxford", "addr:housenumber": "27-29", "addr:postcode": "OX1 2AU", "addr:street": "George Street", "amenity": "restaurant", "branch": "Oxford", "brand": "Rosa's Thai Cafe", "brand:wikidata": "Q110413602", "cuisine": "thai", "delivery": "yes", "email": "oxford@rosasthai.com", "fhrs:id": "1611519", "level": "0", "name": "Rosa's Thai Cafe", "opening_hours": "Mo-Th 11:30-21:30; Fr-Sa 11:30-22:00; Su 11:30-21:30", "opening_hours:url": "https://rosasthai.com/locations/rosas-thai-restaurant-delivery-takeaway-oxford", "phone": "+44 1865 306214", "reservation": "yes", "reservation:website": "https://rosasthai.com/locations/rosas-thai-restaurant-delivery-takeaway-oxford", "takeaway": "yes", "website": "https://rosasthai.com"}}, {"type": "node", "id": 3321532691, "lat": 51.7519124, "lon": -1.2599956, "tags": {"addr:housenumber": "1", "addr:street": "New Inn Hall Street", "fhrs:id": "269077", "name": "Bonn Square News", "shop": "convenience"}}, {"type": "node", "id": 3321532711, "lat": 51.7520674, "lon": -1.2598278, "tags": {"addr:city": "Oxford", "addr:housename": "North Bailey House", "addr:postcode": "OX1 2RP", "addr:street": "New Inn Hall Street", "alt_name": "Dishoom - The Permit Room", "amenity": "restaurant", "branch": "Oxford", "brand": "Dishoom", "brand:wikidata": "Q48699762", "contact:instagram": "https://www.instagram.com/dishoompermitroom", "cuisine": "indian", "delivery": "yes", "fhrs:id": "1743491", "name": "Dishoom", "opening_hours": "Su-Th 09:00-23:00; Fr-Sa 09:00-24:00", "opening_hours:kitchen": "Su-Th 09:00-21:30; Fr-Sa 09:00-22:00", "opening_hours:url": "https://www.permitroom.co.uk/locations/oxford/", "phone": "+44 1865 597777", "reservation": "yes", "reservation:website": "https://www.permitroom.co.uk/locations/oxford/", "takeaway": "no", "website": "https://www.permitroom.co.uk/locations/oxford"}}, {"type": "node", "id": 3321532729, "lat": 51.7535577, "lon": -1.2624519, "tags": {"addr:city": "Oxford", "addr:housenumber": "42", "addr:postcode": "OX1 2AQ", "addr:street": "George Street", "check_date": "2024-04-21", "fhrs:id": "679551", "name": "Oxford Shop", "shop": "convenience", "source:addr": "FHRS Open Data"}}, {"type": "node", "id": 3321533093, "lat": 51.7543756, "lon": -1.2591636, "tags": {"addr:city": "Oxford", "addr:housenumber": "8", "addr:postcode": "OX1 3AD", "addr:street": "Magdalen Street", "amenity": "restaurant", "branch": "Oxford", "brand": "Cosmo", "brand:wikidata": "Q5174239", "cuisine": "international", "delivery": "no", "email": "oxford@cosmo-restaurants.co.uk", "fhrs:id": "1499302", "level": "-1", "name": "Cosmo", "opening_hours": "Mo-Th 16:30-21:30; Fr 16:30-22:30; Sa 12:00-22:30; Su 12:00-21:00; PH 12:00-22:00", "opening_hours:url": "https://www.cosmo-restaurants.co.uk/restaurants/oxford", "phone": "+44 1865 297575", "reservation": "yes", "reservation:website": "https://www.cosmo-restaurants.co.uk/restaurants/oxford", "takeaway": "no", "website": "https://www.cosmo-restaurants.co.uk/restaurants/oxford", "wheelchair": "yes"}}, {"type": "node", "id": 3536312062, "lat": 51.7694164, "lon": -1.254131}, {"type": "node", "id": 3613601832, "lat": 51.7537422, "lon": -1.2608234, "tags": {"addr:city": "Oxford", "addr:housename": "Threeways House", "addr:housenumber": "36", "addr:postcode": "OX1 2BJ", "addr:street": "George Street", "addr:unit": "A", "amenity": "restaurant", "branch": "Oxford", "brand": "Thaikhun", "check_date": "2024-04-21", "cuisine": "thai", "delivery": "yes", "diet:vegan": "yes", "diet:vegetarian": "yes", "email": "oxford@thaikhun.co.uk", "fhrs:id": "836583", "name": "Thaikhun", "opening_hours": "Mo-Th 11:30-21:30; Fr-Sa 11:30-22:00; Su 11:30-20:30", "opening_hours:url": "https://www.thaikhun.co.uk/thai-restaurant/oxford/contact", "phone": "+44 1865 819046", "reservation": "yes", "reservation:website": "https://www.thaikhun.co.uk/thai-restaurant/oxford/book", "source:addr": "FHRS Open Data", "takeaway": "yes", "website": "https://www.thaikhun.co.uk/thai-restaurant/oxford", "wheelchair": "limited"}}, {"type": "node", "id": 3791813145, "lat": 51.7532057, "lon": -1.2809916}, {"type": "node", "id": 3791813146, "lat": 51.7534018, "lon": -1.2806705}, {"type": "node", "id": 3791813147, "lat": 51.7531019, "lon": -1.2801581}, {"type": "node", "id": 3791813148, "lat": 51.7533294, "lon": -1.2808166}, {"type": "node", "id": 3791813149, "lat": 51.7533656, "lon": -1.2802027}, {"type": "node", "id": 3791813150, "lat": 51.7527779, "lon": -1.280286}, {"type": "node", "id": 3791813152, "lat": 51.7531067, "lon": -1.2802197}, {"type": "node", "id": 3791813154, "lat": 51.7528182, "lon": -1.2808136}, {"type": "node", "id": 3791813155, "lat": 51.7533194, "lon": -1.2806871}, {"type": "node", "id": 3791815825, "lat": 51.7528068, "lon": -1.2806598}, {"type": "node", "id": 4196909562, "lat": 51.7503053, "lon": -1.2421668, "tags": {"addr:city": "Oxford", "addr:housenumber": "36-37", "addr:postcode": "OX4 1AB", "addr:street": "St Clement's Street", "amenity": "restaurant", "check_date": "2023-09-24", "cuisine": "fish;seafood", "delivery": "yes", "diet:gluten_free": "yes", "diet:vegan": "yes", "diet:vegetarian": "yes", "email": "cuttlefishoxford@gmail.com", "fhrs:id": "949733", "name": "Cuttlefish", "opening_hours": "Mo-Sa 11:00-22:30; Su 10:00-21:30", "opening_hours:url": "https://www.cuttlefishoxford.co.uk/", "phone": "+44 1865 243003", "reservation": "yes", "reservation:website": "https://www.thefork.co.uk/restaurant/cuttlefish-r825330#booking=", "takeaway": "yes", "website": "http://www.cuttlefishoxford.co.uk/"}}, {"type": "node", "id": 4196909563, "lat": 51.7503429, "lon": -1.2419912, "tags": {"addr:city": "Oxford", "addr:housename": "Eleanor House", "addr:housenumber": "39-40", "addr:postcode": "OX4 1AG", "addr:street": "St Clements Street", "amenity": "restaurant", "check_date": "2023-09-24", "cuisine": "italian", "delivery": "yes", "diet:gluten_free": "yes", "diet:vegan": "yes", "diet:vegetarian": "yes", "email": "lacucinaoxford@gmail.com", "fhrs:id": "268770", "name": "La Cucina", "opening_hours": "Mo-Su 11:00-22:30", "opening_hours:url": "https://www.lacucinaoxford.co.uk/", "phone": "+44 1865 793811", "reservation": "yes", "reservation:website": "https://www.thefork.co.uk/restaurant/la-cucina-r825329", "takeaway": "no", "website": "http://www.lacucinaoxford.co.uk/"}}, {"type": "node", "id": 4375252493, "lat": 51.748676, "lon": -1.2401798, "tags": {"addr:city": "Oxford", "addr:housenumber": "84", "addr:postcode": "OX4 1JB", "addr:street": "Cowley Road", "amenity": "restaurant", "cuisine": "indian;south_indian", "delivery": "yes", "email": "info@tendercoconut.uk", "fhrs:id": "1810463", "name": "Tender Coconut", "opening_hours": "Mo,We-Su 12:00-14:30,17:30-22:30", "opening_hours:url": "https://www.tendercoconut.uk/", "phone": "+44 7769 288686", "reservation": "yes", "reservation:website": "https://order.tendercoconut.uk/booking", "takeaway": "yes", "website": "https://www.tendercoconut.uk/"}}, {"type": "node", "id": 4555526357, "lat": 51.764688, "lon": -1.2613082, "tags": {"name": "9 to 9", "shop": "convenience"}}, {"type": "node", "id": 4713043341, "lat": 51.7486325, "lon": -1.2400387, "tags": {"addr:housenumber": "88", "addr:street": "Cowley Road", "fhrs:id": "1011219", "name": "Baltic Food", "shop": "convenience"}}, {"type": "node", "id": 4998286146, "lat": 51.7339353, "lon": -1.2497227, "tags": {"amenity": "atm", "check_date": "2024-10-02", "operator": "Tesco"}}, {"type": "node", "id": 5081850073, "lat": 51.7325347, "lon": -1.2166599, "tags": {"addr:city": "Oxford", "addr:housenumber": "51", "addr:postcode": "OX4 3LR", "addr:street": "Between Towns Road", "fhrs:id": "1656361", "name": "World Food & Wine", "shop": "convenience"}}, {"type": "node", "id": 5186659891, "lat": 51.7506918, "lon": -1.2614603, "tags": {"addr:city": "Oxford", "addr:housename": "The Westgate", "addr:postcode": "OX1 1PB", "addr:street": "Queen Street", "addr:unit": "131", "amenity": "restaurant", "branch": "Oxford", "brand": "Neds Noodle Bar", "check_date": "2025-06-15", "cuisine": "noodle;asian;chinese", "delivery": "yes", "diet:gluten_free": "yes", "diet:vegan": "yes", "email": "james@nedsnoodlebar.com", "fhrs:id": "1019662", "level": "0", "level:ref": "LG", "name": "Neds Noodle Bar", "opening_hours": "Mo-Sa 11:00-21:00; Su 11:00-17:00", "opening_hours:url": "https://nedsnoodlebar.com/places/oxford", "phone": "+44 2075 930077", "reservation": "no", "takeaway": "yes", "website": "https://nedsnoodlebar.com/places/oxford"}}, {"type": "node", "id": 5186659892, "lat": 51.7506513, "lon": -1.2612052, "tags": {"addr:city": "Oxford", "addr:housename": "The Westgate", "addr:postcode": "OX1 1PB", "addr:street": "Queen Street", "addr:unit": "K1-128", "amenity": "restaurant", "branch": "Oxford Westgate", "brand": "Benito's", "check_date": "2025-06-15", "cuisine": "mexican", "delivery": "yes", "fhrs:id": "1672519", "level:ref": "LG", "name": "Benito's", "opening_hours": "Mo-Sa 12:00-21:00; Su 12:00-18:00", "opening_hours:url": "https://www.benitos.co.uk/benitos-oxford-westgate/", "phone": "+44 1865 655860", "reservation": "no", "takeaway": "yes", "website": "https://www.benitos.co.uk/benitos-oxford-westgate/"}}, {"type": "node", "id": 5186861865, "lat": 51.7515575, "lon": -1.2605805, "tags": {"addr:city": "Oxford", "addr:housename": "The Westgate", "addr:postcode": "OX1 1PE", "addr:street": "Queen Street", "addr:unit": "227", "amenity": "restaurant", "branch": "Oxford", "brand": "Comptoir Libanais", "brand:wikidata": "Q91025096", "check_date": "2025-02-10", "cuisine": "lebanese", "delivery": "yes", "email": "oxford@comptoirlibanais.com", "fhrs:id": "1011208", "name": "Comptoir Libanais", "opening_hours": "Mo-Sa 11:30-22:00; Su 11:30-20:00", "opening_hours:url": "https://www.comptoirlibanais.com/locations/oxford/", "phone": "+44 1865 980222", "reservation": "yes", "reservation:website": "https://www.comptoirlibanais.com/locations/oxford/", "takeaway": "yes", "website": "https://www.comptoirlibanais.com/restaurants/oxford"}}, {"type": "node", "id": 5186933931, "lat": 51.7489857, "lon": -1.2616217, "tags": {"addr:city": "Oxford", "addr:housename": "The Westgate", "addr:postcode": "OX1 1PG", "addr:street": "Queen Street", "addr:unit": "304", "amenity": "restaurant", "branch": "Oxford", "brand": "Dirty Bones", "cuisine": "american;chicken;burger", "delivery": "yes", "fhrs:id": "1759665", "name": "Dirty Bones", "opening_hours": "Mo-Th 12:00-23:00; Fr 12:00-24:00; Sa 11:00-24:00; Su 11:00-22:00", "opening_hours:url": "https://dirty-bones.com/book/oxford", "phone": "+44 2080 594483", "reservation": "yes", "reservation:website": "https://www.sevenrooms.com/explore/dirtybonesoxford/reservations/create/search", "takeaway": "no", "website": "https://dirty-bones.com/book/oxford"}},